{"type":"FeatureCollection","features":[{"type":"Feature","properties":{"name":"The Green Shutters in Portland","id":"10002"},"geometry":{"type":"Point","coordinates":[50.568022,-2.442841]}},{"type":"Feature","properties":{"name":"Little Ship in Portland","id":"10004"},"geometry":{"type":"Point","coordinates":[50.563299,-2.449436]}},{"type":"Feature","properties":{"name":"Royal Portland Arms in Portland","id":"10012"},"geometry":{"type":"Point","coordinates":[50.559373,-2.442251]}},{"type":"Feature","properties":{"name":"The Kings Arms in Shaftesbury","id":"10019"},"geometry":{"type":"Point","coordinates":[51.007011,-2.198346]}},{"type":"Feature","properties":{"name":"The Polhill Arms in Renhold","id":"1002"},"geometry":{"type":"Point","coordinates":[52.161742,-0.420041]}},{"type":"Feature","properties":{"name":"The Digby Tap in Sherborne","id":"10030"},"geometry":{"type":"Point","coordinates":[50.945165,-2.516491]}},{"type":"Feature","properties":{"name":"Gainsborough Arms in Milborne Port","id":"10032"},"geometry":{"type":"Point","coordinates":[50.968033,-2.470388]}},{"type":"Feature","properties":{"name":"The Lime Tree in Thornford","id":"10036"},"geometry":{"type":"Point","coordinates":[50.915802,-2.564204]}},{"type":"Feature","properties":{"name":"The Tippling Philosopher in Milborne Port","id":"10037"},"geometry":{"type":"Point","coordinates":[50.966277,-2.461954]}},{"type":"Feature","properties":{"name":"Plume Of Feathers in Sherborne","id":"10038"},"geometry":{"type":"Point","coordinates":[50.946233,-2.516083]}},{"type":"Feature","properties":{"name":"The Prince Of Wales in Ampthill","id":"1003"},"geometry":{"type":"Point","coordinates":[52.033031,-0.494478]}},{"type":"Feature","properties":{"name":"The Rose and Crown in Bradford Abbas","id":"10041"},"geometry":{"type":"Point","coordinates":[50.92616,-2.586484]}},{"type":"Feature","properties":{"name":"The Arch in Sherborne","id":"10044"},"geometry":{"type":"Point","coordinates":[50.948815,-2.516105]}},{"type":"Feature","properties":{"name":"The White Hart in Sherborne","id":"10047"},"geometry":{"type":"Point","coordinates":[50.949856,-2.517092]}},{"type":"Feature","properties":{"name":"The Prince Of Wales in Bromham","id":"1004"},"geometry":{"type":"Point","coordinates":[52.14505,-0.535905]}},{"type":"Feature","properties":{"name":"The Stalbridge Arms in Stalbridge","id":"10053"},"geometry":{"type":"Point","coordinates":[50.956677,-2.375492]}},{"type":"Feature","properties":{"name":"The Queen in Bedford","id":"1005"},"geometry":{"type":"Point","coordinates":[52.136076,-0.485281]}},{"type":"Feature","properties":{"name":"Crows Nest in Swanage","id":"10064"},"geometry":{"type":"Point","coordinates":[50.617797,-1.958454]}},{"type":"Feature","properties":{"name":"The Queens Head in Ampthill","id":"1006"},"geometry":{"type":"Point","coordinates":[52.031676,-0.495135]}},{"type":"Feature","properties":{"name":"The Kings Arms in Langton Matravers","id":"10078"},"geometry":{"type":"Point","coordinates":[50.609234,-2.0037]}},{"type":"Feature","properties":{"name":"The Red Lion in Elstow","id":"1007"},"geometry":{"type":"Point","coordinates":[52.116572,-0.468699]}},{"type":"Feature","properties":{"name":"The Red Lion in Swanage","id":"10085"},"geometry":{"type":"Point","coordinates":[50.607815,-1.95907]}},{"type":"Feature","properties":{"name":"The Royal Oak in Swanage","id":"10086"},"geometry":{"type":"Point","coordinates":[50.609907,-1.981229]}},{"type":"Feature","properties":{"name":"The Red Lion in Wilstead","id":"1008"},"geometry":{"type":"Point","coordinates":[52.081142,-0.449517]}},{"type":"Feature","properties":{"name":"Bankes Arms in Studland","id":"10091"},"geometry":{"type":"Point","coordinates":[50.643036,-1.948475]}},{"type":"Feature","properties":{"name":"The White Swan in Swanage","id":"10095"},"geometry":{"type":"Point","coordinates":[50.608148,-1.956678]}},{"type":"Feature","properties":{"name":"The Swans in Verwood","id":"10099"},"geometry":{"type":"Point","coordinates":[50.876046,-1.873855]}},{"type":"Feature","properties":{"name":"The Drax Arms in Bere Regis","id":"10107"},"geometry":{"type":"Point","coordinates":[50.753489,-2.218255]}},{"type":"Feature","properties":{"name":"Duke Of Wellington in Wareham","id":"10108"},"geometry":{"type":"Point","coordinates":[50.686176,-2.109266]}},{"type":"Feature","properties":{"name":"The Horse and Groom in Wareham","id":"10113"},"geometry":{"type":"Point","coordinates":[50.68476,-2.109088]}},{"type":"Feature","properties":{"name":"The Kings Arms in Stoborough","id":"10114"},"geometry":{"type":"Point","coordinates":[50.677812,-2.109278]}},{"type":"Feature","properties":{"name":"The Kings Arms in Wareham","id":"10115"},"geometry":{"type":"Point","coordinates":[50.687631,-2.110981]}},{"type":"Feature","properties":{"name":"Scott Arms in Corfe Castle","id":"10123"},"geometry":{"type":"Point","coordinates":[50.616241,-2.062982]}},{"type":"Feature","properties":{"name":"The Admiral Hardy Pub in Weymouth","id":"10128"},"geometry":{"type":"Point","coordinates":[50.607746,-2.474517]}},{"type":"Feature","properties":{"name":"The Black Dog in Weymouth","id":"10139"},"geometry":{"type":"Point","coordinates":[50.610599,-2.453755]}},{"type":"Feature","properties":{"name":"The Legstraps in Wootton","id":"1013"},"geometry":{"type":"Point","coordinates":[52.103669,-0.529669]}},{"type":"Feature","properties":{"name":"The Boot in Weymouth","id":"10140"},"geometry":{"type":"Point","coordinates":[50.606295,-2.459536]}},{"type":"Feature","properties":{"name":"The Lodmoor in Weymouth","id":"10141"},"geometry":{"type":"Point","coordinates":[50.625538,-2.44642]}},{"type":"Feature","properties":{"name":"The Rose and Crown in Ridgmont","id":"1014"},"geometry":{"type":"Point","coordinates":[52.015952,-0.577425]}},{"type":"Feature","properties":{"name":"The Dolphin in Weymouth","id":"10156"},"geometry":{"type":"Point","coordinates":[50.61404,-2.454594]}},{"type":"Feature","properties":{"name":"The Red Lion in Weymouth","id":"10157"},"geometry":{"type":"Point","coordinates":[50.606173,-2.451791]}},{"type":"Feature","properties":{"name":"The Royal George in Stagsden","id":"1015"},"geometry":{"type":"Point","coordinates":[52.13,-0.567021]}},{"type":"Feature","properties":{"name":"Duke Of Cornwall in Weymouth","id":"10160"},"geometry":{"type":"Point","coordinates":[50.607577,-2.454156]}},{"type":"Feature","properties":{"name":"The Edinburgh House Of Sounds in Weymouth","id":"10161"},"geometry":{"type":"Point","coordinates":[50.610525,-2.454278]}},{"type":"Feature","properties":{"name":"The New Vic in Weymouth","id":"10166"},"geometry":{"type":"Point","coordinates":[50.609589,-2.453008]}},{"type":"Feature","properties":{"name":"The Royal George in Stevington","id":"1016"},"geometry":{"type":"Point","coordinates":[52.167488,-0.556586]}},{"type":"Feature","properties":{"name":"Pie and Ale House in Weymouth","id":"10171"},"geometry":{"type":"Point","coordinates":[50.615437,-2.453703]}},{"type":"Feature","properties":{"name":"The Globe in Weymouth","id":"10172"},"geometry":{"type":"Point","coordinates":[50.607655,-2.453038]}},{"type":"Feature","properties":{"name":"The Golden Lion in Weymouth","id":"10173"},"geometry":{"type":"Point","coordinates":[50.607877,-2.45465]}},{"type":"Feature","properties":{"name":"The Royal Oak in Kempston","id":"1017"},"geometry":{"type":"Point","coordinates":[52.112015,-0.497888]}},{"type":"Feature","properties":{"name":"The John Gregory in Weymouth","id":"10184"},"geometry":{"type":"Point","coordinates":[50.624446,-2.476904]}},{"type":"Feature","properties":{"name":"The Kings Arms in Portesham","id":"10188"},"geometry":{"type":"Point","coordinates":[50.669857,-2.564159]}},{"type":"Feature","properties":{"name":"The Kings Arms in Weymouth","id":"10189"},"geometry":{"type":"Point","coordinates":[50.606709,-2.455032]}},{"type":"Feature","properties":{"name":"The Royal Oak in Roxton","id":"1018"},"geometry":{"type":"Point","coordinates":[52.177602,-0.315663]}},{"type":"Feature","properties":{"name":"The Market House in Weymouth","id":"10199"},"geometry":{"type":"Point","coordinates":[50.608309,-2.453725]}},{"type":"Feature","properties":{"name":"The Park in Weymouth","id":"10215"},"geometry":{"type":"Point","coordinates":[50.619221,-2.452015]}},{"type":"Feature","properties":{"name":"The Rock in Weymouth","id":"10224"},"geometry":{"type":"Point","coordinates":[50.611377,-2.466087]}},{"type":"Feature","properties":{"name":"The Rodwell in Weymouth","id":"10225"},"geometry":{"type":"Point","coordinates":[50.605287,-2.459781]}},{"type":"Feature","properties":{"name":"The Royal Oak in Weymouth","id":"10227"},"geometry":{"type":"Point","coordinates":[50.62357,-2.455138]}},{"type":"Feature","properties":{"name":"The Royal Standard in Upwey","id":"10229"},"geometry":{"type":"Point","coordinates":[50.659908,-2.46805]}},{"type":"Feature","properties":{"name":"The Royal Oak in Houghton Conquest","id":"1022"},"geometry":{"type":"Point","coordinates":[52.062983,-0.474282]}},{"type":"Feature","properties":{"name":"The Sailors Return in Weymouth","id":"10231"},"geometry":{"type":"Point","coordinates":[50.607873,-2.45633]}},{"type":"Feature","properties":{"name":"The Spice Ship in Preston","id":"10236"},"geometry":{"type":"Point","coordinates":[50.646412,-2.418344]}},{"type":"Feature","properties":{"name":"The Spyglass in Overcombe","id":"10237"},"geometry":{"type":"Point","coordinates":[50.634634,-2.429654]}},{"type":"Feature","properties":{"name":"The Star in Weymouth","id":"10238"},"geometry":{"type":"Point","coordinates":[50.613092,-2.455504]}},{"type":"Feature","properties":{"name":"The Sunray in Osmington","id":"10240"},"geometry":{"type":"Point","coordinates":[50.645092,-2.389397]}},{"type":"Feature","properties":{"name":"Waverley Arms in Weymouth","id":"10264"},"geometry":{"type":"Point","coordinates":[50.611074,-2.469886]}},{"type":"Feature","properties":{"name":"The Wellington Arms in Weymouth","id":"10266"},"geometry":{"type":"Point","coordinates":[50.608876,-2.454685]}},{"type":"Feature","properties":{"name":"The Wyke Smugglers in Weymouth","id":"10272"},"geometry":{"type":"Point","coordinates":[50.593848,-2.475394]}},{"type":"Feature","properties":{"name":"The Albion in Wimborne","id":"10273"},"geometry":{"type":"Point","coordinates":[50.799406,-1.987496]}},{"type":"Feature","properties":{"name":"The Glassblowers in Wimborne","id":"10276"},"geometry":{"type":"Point","coordinates":[50.798983,-1.986985]}},{"type":"Feature","properties":{"name":"The Ginger Fox in Sturminster Marshall","id":"10277"},"geometry":{"type":"Point","coordinates":[50.797731,-2.083829]}},{"type":"Feature","properties":{"name":"The Churchill Arms in Sturminster Marshall","id":"10278"},"geometry":{"type":"Point","coordinates":[50.79593,-2.074035]}},{"type":"Feature","properties":{"name":"The Coach and Horses in Wimborne","id":"10279"},"geometry":{"type":"Point","coordinates":[50.795031,-1.981225]}},{"type":"Feature","properties":{"name":"The Coventry Arms in Corfe Mullen","id":"10280"},"geometry":{"type":"Point","coordinates":[50.786334,-2.037236]}},{"type":"Feature","properties":{"name":"The Dorset Soldier in Corfe Mullen","id":"10283"},"geometry":{"type":"Point","coordinates":[50.767067,-2.019594]}},{"type":"Feature","properties":{"name":"Fox and Hounds in Stapehill","id":"10286"},"geometry":{"type":"Point","coordinates":[50.79956,-1.937093]}},{"type":"Feature","properties":{"name":"Smiths Arms in Kempston","id":"1028"},"geometry":{"type":"Point","coordinates":[52.119682,-0.488805]}},{"type":"Feature","properties":{"name":"Oddfellows Arms in Wimborne","id":"10293"},"geometry":{"type":"Point","coordinates":[50.799694,-1.988475]}},{"type":"Feature","properties":{"name":"The Three Legged Cross in Three Legged Cross","id":"10294"},"geometry":{"type":"Point","coordinates":[50.844223,-1.863365]}},{"type":"Feature","properties":{"name":"The Minster Arms in Wimborne","id":"10295"},"geometry":{"type":"Point","coordinates":[50.79991,-1.99022]}},{"type":"Feature","properties":{"name":"Red Lion in Sturminster Marshall","id":"10296"},"geometry":{"type":"Point","coordinates":[50.802614,-2.070725]}},{"type":"Feature","properties":{"name":"The Rising Sun in Wimborne","id":"10297"},"geometry":{"type":"Point","coordinates":[50.798282,-1.986304]}},{"type":"Feature","properties":{"name":"The Sheaf Of Arrows in Cranborne","id":"10300"},"geometry":{"type":"Point","coordinates":[50.91932,-1.922774]}},{"type":"Feature","properties":{"name":"The Willett Arms in Merley","id":"10304"},"geometry":{"type":"Point","coordinates":[50.787066,-1.976505]}},{"type":"Feature","properties":{"name":"The Chequers in Battle","id":"10311"},"geometry":{"type":"Point","coordinates":[50.913526,0.491139]}},{"type":"Feature","properties":{"name":"The Kings Arms in Ninfield","id":"10314"},"geometry":{"type":"Point","coordinates":[50.885505,0.426653]}},{"type":"Feature","properties":{"name":"The Queens Head in Sedlescombe","id":"10317"},"geometry":{"type":"Point","coordinates":[50.933097,0.535027]}},{"type":"Feature","properties":{"name":"The Senlac in Battle","id":"10318"},"geometry":{"type":"Point","coordinates":[50.911683,0.492759]}},{"type":"Feature","properties":{"name":"The Sportsman in Bedford","id":"1031"},"geometry":{"type":"Point","coordinates":[52.145926,-0.432457]}},{"type":"Feature","properties":{"name":"The White Hart in Catsfield","id":"10321"},"geometry":{"type":"Point","coordinates":[50.897064,0.448551]}},{"type":"Feature","properties":{"name":"The Denbigh in Bexhill-On-Sea","id":"10326"},"geometry":{"type":"Point","coordinates":[50.846285,0.446496]}},{"type":"Feature","properties":{"name":"St John Arms in Melchbourne","id":"1032"},"geometry":{"type":"Point","coordinates":[52.284193,-0.49172]}},{"type":"Feature","properties":{"name":"Rose and Crown in Bexhill-On-Sea","id":"10337"},"geometry":{"type":"Point","coordinates":[50.857367,0.457649]}},{"type":"Feature","properties":{"name":"The Royal Sovereign in Bexhill-On-Sea","id":"10338"},"geometry":{"type":"Point","coordinates":[50.840751,0.477441]}},{"type":"Feature","properties":{"name":"The Sportsman in Bexhill-On-Sea","id":"10339"},"geometry":{"type":"Point","coordinates":[50.839153,0.470075]}},{"type":"Feature","properties":{"name":"The Wheatsheaf in Bexhill-On-Sea","id":"10345"},"geometry":{"type":"Point","coordinates":[50.845351,0.43323]}},{"type":"Feature","properties":{"name":"The Admiral in Brighton","id":"10349"},"geometry":{"type":"Point","coordinates":[50.83184,-0.128853]}},{"type":"Feature","properties":{"name":"The Star and Garter in Silsoe","id":"1034"},"geometry":{"type":"Point","coordinates":[52.007537,-0.424547]}},{"type":"Feature","properties":{"name":"The Prince Albert in Brighton","id":"10351"},"geometry":{"type":"Point","coordinates":[50.828451,-0.140693]}},{"type":"Feature","properties":{"name":"The Star in Clapham","id":"1035"},"geometry":{"type":"Point","coordinates":[52.160214,-0.492575]}},{"type":"Feature","properties":{"name":"The Plotting Parlour in Brighton","id":"10360"},"geometry":{"type":"Point","coordinates":[50.820236,-0.135982]}},{"type":"Feature","properties":{"name":"The Basketmakers Arms in Brighton","id":"10366"},"geometry":{"type":"Point","coordinates":[50.826617,-0.136819]}},{"type":"Feature","properties":{"name":"The Bat and Ball in Brighton","id":"10367"},"geometry":{"type":"Point","coordinates":[50.830885,-0.13457]}},{"type":"Feature","properties":{"name":"The Bath Arms in Brighton","id":"10368"},"geometry":{"type":"Point","coordinates":[50.822115,-0.141019]}},{"type":"Feature","properties":{"name":"The Battle Of Trafalgar in Brighton","id":"10369"},"geometry":{"type":"Point","coordinates":[50.828872,-0.142462]}},{"type":"Feature","properties":{"name":"The Stone Jug in Clophill","id":"1036"},"geometry":{"type":"Point","coordinates":[52.030624,-0.422834]}},{"type":"Feature","properties":{"name":"The Battle Of Trafalgar in Portslade","id":"10370"},"geometry":{"type":"Point","coordinates":[50.836628,-0.216304]}},{"type":"Feature","properties":{"name":"Brighton Rocks in Brighton","id":"10371"},"geometry":{"type":"Point","coordinates":[50.819981,-0.130976]}},{"type":"Feature","properties":{"name":"The Bear in Brighton","id":"10375"},"geometry":{"type":"Point","coordinates":[50.83792,-0.123896]}},{"type":"Feature","properties":{"name":"The West Hill in Brighton","id":"10378"},"geometry":{"type":"Point","coordinates":[50.830797,-0.142779]}},{"type":"Feature","properties":{"name":"The Black Horse in Brighton","id":"10380"},"geometry":{"type":"Point","coordinates":[50.824079,-0.138656]}},{"type":"Feature","properties":{"name":"The Blue Anchor in Portslade","id":"10382"},"geometry":{"type":"Point","coordinates":[50.830114,-0.208619]}},{"type":"Feature","properties":{"name":"The Bristol Arms in Brighton","id":"10388"},"geometry":{"type":"Point","coordinates":[50.817312,-0.119497]}},{"type":"Feature","properties":{"name":"The Swan At Cranfield in Cranfield","id":"1038"},"geometry":{"type":"Point","coordinates":[52.068274,-0.608201]}},{"type":"Feature","properties":{"name":"The Thomas Kemp in Brighton","id":"10391"},"geometry":{"type":"Point","coordinates":[50.819382,-0.123865]}},{"type":"Feature","properties":{"name":"The New Bush in Brighton","id":"10392"},"geometry":{"type":"Point","coordinates":[50.81519,-0.108098]}},{"type":"Feature","properties":{"name":"The Cleveland in Brighton","id":"10397"},"geometry":{"type":"Point","coordinates":[50.842288,-0.138503]}},{"type":"Feature","properties":{"name":"The Swan in Flitwick","id":"1039"},"geometry":{"type":"Point","coordinates":[52.00302,-0.494937]}},{"type":"Feature","properties":{"name":"Cobden Arms in Brighton","id":"10400"},"geometry":{"type":"Point","coordinates":[50.830956,-0.12473]}},{"type":"Feature","properties":{"name":"The Colonnade in Brighton","id":"10401"},"geometry":{"type":"Point","coordinates":[50.823308,-0.139635]}},{"type":"Feature","properties":{"name":"The French Horn in Brighton","id":"10404"},"geometry":{"type":"Point","coordinates":[50.830068,-0.146982]}},{"type":"Feature","properties":{"name":"The Constant Service in Brighton","id":"10405"},"geometry":{"type":"Point","coordinates":[50.829081,-0.126208]}},{"type":"Feature","properties":{"name":"County Oak in Brighton","id":"10408"},"geometry":{"type":"Point","coordinates":[50.861127,-0.12837]}},{"type":"Feature","properties":{"name":"The Crescent in Brighton","id":"10410"},"geometry":{"type":"Point","coordinates":[50.828398,-0.148712]}},{"type":"Feature","properties":{"name":"The Midway in Portslade","id":"10412"},"geometry":{"type":"Point","coordinates":[50.832137,-0.21364]}},{"type":"Feature","properties":{"name":"Crown and Anchor in Brighton","id":"10414"},"geometry":{"type":"Point","coordinates":[50.843162,-0.151611]}},{"type":"Feature","properties":{"name":"The Druids in Brighton","id":"10418"},"geometry":{"type":"Point","coordinates":[50.831839,-0.134461]}},{"type":"Feature","properties":{"name":"The Druids Head in Brighton","id":"10419"},"geometry":{"type":"Point","coordinates":[50.82176,-0.14015]}},{"type":"Feature","properties":{"name":"The Swan in Bromham","id":"1041"},"geometry":{"type":"Point","coordinates":[52.144649,-0.528057]}},{"type":"Feature","properties":{"name":"The Duke Of Wellington in Brighton","id":"10420"},"geometry":{"type":"Point","coordinates":[50.827628,-0.143255]}},{"type":"Feature","properties":{"name":"The Dyke in Brighton","id":"10421"},"geometry":{"type":"Point","coordinates":[50.83865,-0.155074]}},{"type":"Feature","properties":{"name":"The Reservoir in Brighton","id":"10423"},"geometry":{"type":"Point","coordinates":[50.831051,-0.127131]}},{"type":"Feature","properties":{"name":"The Evening Star in Brighton","id":"10425"},"geometry":{"type":"Point","coordinates":[50.827761,-0.142028]}},{"type":"Feature","properties":{"name":"The Fiddlers Elbow in Brighton","id":"10426"},"geometry":{"type":"Point","coordinates":[50.822095,-0.143575]}},{"type":"Feature","properties":{"name":"Fortune Of War in Brighton","id":"10428"},"geometry":{"type":"Point","coordinates":[50.820344,-0.144623]}},{"type":"Feature","properties":{"name":"The Geese (Have Gone Over The Water) in Brighton","id":"10436"},"geometry":{"type":"Point","coordinates":[50.829303,-0.130414]}},{"type":"Feature","properties":{"name":"Brighton Music Hall in Brighton","id":"10437"},"geometry":{"type":"Point","coordinates":[50.820685,-0.146668]}},{"type":"Feature","properties":{"name":"The Eagle in Brighton","id":"10438"},"geometry":{"type":"Point","coordinates":[50.82678,-0.136913]}},{"type":"Feature","properties":{"name":"Gladstone Arms in Brighton","id":"10440"},"geometry":{"type":"Point","coordinates":[50.836838,-0.124599]}},{"type":"Feature","properties":{"name":"Mucky Duck in Brighton","id":"10441"},"geometry":{"type":"Point","coordinates":[50.820784,-0.135709]}},{"type":"Feature","properties":{"name":"Good Companions in Brighton","id":"10442"},"geometry":{"type":"Point","coordinates":[50.832132,-0.148111]}},{"type":"Feature","properties":{"name":"The Great Eastern in Brighton","id":"10444"},"geometry":{"type":"Point","coordinates":[50.827984,-0.136047]}},{"type":"Feature","properties":{"name":"The Office in Brighton","id":"10445"},"geometry":{"type":"Point","coordinates":[50.827336,-0.138055]}},{"type":"Feature","properties":{"name":"The Greys in Brighton","id":"10447"},"geometry":{"type":"Point","coordinates":[50.82921,-0.130586]}},{"type":"Feature","properties":{"name":"Duke of Norfolk in Brighton","id":"10449"},"geometry":{"type":"Point","coordinates":[50.825115,-0.155318]}},{"type":"Feature","properties":{"name":"Swan With Two Nicks in Sharnbrook","id":"1044"},"geometry":{"type":"Point","coordinates":[52.225566,-0.543243]}},{"type":"Feature","properties":{"name":"The Hampton in Brighton","id":"10452"},"geometry":{"type":"Point","coordinates":[50.825691,-0.149983]}},{"type":"Feature","properties":{"name":"Hand In Hand in Brighton","id":"10454"},"geometry":{"type":"Point","coordinates":[50.819396,-0.127281]}},{"type":"Feature","properties":{"name":"The Harbour View in Portslade","id":"10456"},"geometry":{"type":"Point","coordinates":[50.830168,-0.210505]}},{"type":"Feature","properties":{"name":"The Hare And Hounds in Brighton","id":"10457"},"geometry":{"type":"Point","coordinates":[50.833399,-0.138321]}},{"type":"Feature","properties":{"name":"The Hartington in Brighton","id":"10458"},"geometry":{"type":"Point","coordinates":[50.832569,-0.121777]}},{"type":"Feature","properties":{"name":"The Heart and Hand in Brighton","id":"10459"},"geometry":{"type":"Point","coordinates":[50.825835,-0.139525]}},{"type":"Feature","properties":{"name":"The Hikers Rest in Brighton","id":"10460"},"geometry":{"type":"Point","coordinates":[50.857773,-0.103297]}},{"type":"Feature","properties":{"name":"The Hobgoblin in Brighton","id":"10461"},"geometry":{"type":"Point","coordinates":[50.829359,-0.135869]}},{"type":"Feature","properties":{"name":"The Hollingbury in Brighton","id":"10463"},"geometry":{"type":"Point","coordinates":[50.840175,-0.130977]}},{"type":"Feature","properties":{"name":"Tamplins Ale House (Jolly Brewer) in Brighton","id":"10467"},"geometry":{"type":"Point","coordinates":[50.838887,-0.133359]}},{"type":"Feature","properties":{"name":"The Katarina in Brighton","id":"10468"},"geometry":{"type":"Point","coordinates":[50.812887,-0.10253]}},{"type":"Feature","properties":{"name":"The King and Queen in Brighton","id":"10473"},"geometry":{"type":"Point","coordinates":[50.824606,-0.137017]}},{"type":"Feature","properties":{"name":"The Kings in Brighton","id":"10474"},"geometry":{"type":"Point","coordinates":[50.821177,-0.134652]}},{"type":"Feature","properties":{"name":"The Ladies Mile in Patcham","id":"10478"},"geometry":{"type":"Point","coordinates":[50.864347,-0.144927]}},{"type":"Feature","properties":{"name":"Caroline of Brunswick in Brighton","id":"10480"},"geometry":{"type":"Point","coordinates":[50.830627,-0.134677]}},{"type":"Feature","properties":{"name":"The Lion and Lobster in Brighton","id":"10481"},"geometry":{"type":"Point","coordinates":[50.823779,-0.154165]}},{"type":"Feature","properties":{"name":"The Long Man Of Wilmington in Patcham","id":"10483"},"geometry":{"type":"Point","coordinates":[50.859649,-0.141634]}},{"type":"Feature","properties":{"name":"The Chimney House in Brighton","id":"10492"},"geometry":{"type":"Point","coordinates":[50.835318,-0.148771]}},{"type":"Feature","properties":{"name":"Martha Gunn in Brighton","id":"10493"},"geometry":{"type":"Point","coordinates":[50.835503,-0.127753]}},{"type":"Feature","properties":{"name":"The Mashtun in Brighton","id":"10494"},"geometry":{"type":"Point","coordinates":[50.823857,-0.138938]}},{"type":"Feature","properties":{"name":"The Mile Oak in Brighton","id":"10496"},"geometry":{"type":"Point","coordinates":[50.851478,-0.232214]}},{"type":"Feature","properties":{"name":"Montreal Arms in Brighton","id":"10501"},"geometry":{"type":"Point","coordinates":[50.826336,-0.128416]}},{"type":"Feature","properties":{"name":"The White Rabbit in Brighton","id":"10502"},"geometry":{"type":"Point","coordinates":[50.826778,-0.138619]}},{"type":"Feature","properties":{"name":"Grand Central in Brighton","id":"10506"},"geometry":{"type":"Point","coordinates":[50.828642,-0.141963]}},{"type":"Feature","properties":{"name":"Park Crescent in Brighton","id":"10515"},"geometry":{"type":"Point","coordinates":[50.833275,-0.130977]}},{"type":"Feature","properties":{"name":"The Park View in Brighton","id":"10516"},"geometry":{"type":"Point","coordinates":[50.844172,-0.145118]}},{"type":"Feature","properties":{"name":"The Foundry in Brighton","id":"10519"},"geometry":{"type":"Point","coordinates":[50.826561,-0.140035]}},{"type":"Feature","properties":{"name":"The Hope and Ruin in Brighton","id":"10522"},"geometry":{"type":"Point","coordinates":[50.824706,-0.143176]}},{"type":"Feature","properties":{"name":"The Plough in Pyecombe","id":"10524"},"geometry":{"type":"Point","coordinates":[50.896559,-0.164058]}},{"type":"Feature","properties":{"name":"The Pond in Brighton","id":"10526"},"geometry":{"type":"Point","coordinates":[50.827168,-0.140799]}},{"type":"Feature","properties":{"name":"The Queens Head in Milton Ernest","id":"1052"},"geometry":{"type":"Point","coordinates":[52.193124,-0.511672]}},{"type":"Feature","properties":{"name":"The Prestonville Arms in Brighton","id":"10530"},"geometry":{"type":"Point","coordinates":[50.833723,-0.145485]}},{"type":"Feature","properties":{"name":"Prince George in Brighton","id":"10531"},"geometry":{"type":"Point","coordinates":[50.827887,-0.136174]}},{"type":"Feature","properties":{"name":"The Prince Of Wales in Brighton","id":"10532"},"geometry":{"type":"Point","coordinates":[50.823695,-0.146647]}},{"type":"Feature","properties":{"name":"Pull and Pump in Brighton","id":"10535"},"geometry":{"type":"Point","coordinates":[50.823917,-0.148483]}},{"type":"Feature","properties":{"name":"Pump House in Brighton","id":"10536"},"geometry":{"type":"Point","coordinates":[50.821492,-0.140223]}},{"type":"Feature","properties":{"name":"Quadrant Freehouse in Brighton","id":"10537"},"geometry":{"type":"Point","coordinates":[50.824093,-0.143482]}},{"type":"Feature","properties":{"name":"The Queen Victoria in Rottingdean","id":"10538"},"geometry":{"type":"Point","coordinates":[50.803737,-0.057334]}},{"type":"Feature","properties":{"name":"Queens Arms in Brighton","id":"10539"},"geometry":{"type":"Point","coordinates":[50.821295,-0.134842]}},{"type":"Feature","properties":{"name":"Queens Head in Brighton","id":"10540"},"geometry":{"type":"Point","coordinates":[50.828276,-0.141556]}},{"type":"Feature","properties":{"name":"Queensbury Arms in Brighton","id":"10543"},"geometry":{"type":"Point","coordinates":[50.82189,-0.149474]}},{"type":"Feature","properties":{"name":"The Signalman in Brighton","id":"10546"},"geometry":{"type":"Point","coordinates":[50.836018,-0.136202]}},{"type":"Feature","properties":{"name":"The Ranelagh in Brighton","id":"10547"},"geometry":{"type":"Point","coordinates":[50.82085,-0.132863]}},{"type":"Feature","properties":{"name":"The Jolly Poacher in Brighton","id":"10553"},"geometry":{"type":"Point","coordinates":[50.836113,-0.133421]}},{"type":"Feature","properties":{"name":"The Southover in Brighton","id":"10554"},"geometry":{"type":"Point","coordinates":[50.827273,-0.126417]}},{"type":"Feature","properties":{"name":"Royal Oak in Poynings","id":"10557"},"geometry":{"type":"Point","coordinates":[50.893554,-0.206793]}},{"type":"Feature","properties":{"name":"The Royal Sovereign in Brighton","id":"10559"},"geometry":{"type":"Point","coordinates":[50.823623,-0.150868]}},{"type":"Feature","properties":{"name":"The Royal Standard in Brighton","id":"10560"},"geometry":{"type":"Point","coordinates":[50.827663,-0.141851]}},{"type":"Feature","properties":{"name":"The Shakespeares Head in Brighton","id":"10563"},"geometry":{"type":"Point","coordinates":[50.83179,-0.145601]}},{"type":"Feature","properties":{"name":"The Sir Charles Napier in Brighton","id":"10568"},"geometry":{"type":"Point","coordinates":[50.827812,-0.127952]}},{"type":"Feature","properties":{"name":"The Setting Sun in Brighton","id":"10569"},"geometry":{"type":"Point","coordinates":[50.824701,-0.129872]}},{"type":"Feature","properties":{"name":"The Three Cups in Bedford","id":"1056"},"geometry":{"type":"Point","coordinates":[52.137228,-0.460481]}},{"type":"Feature","properties":{"name":"The Spanish Lady in Saltdean","id":"10574"},"geometry":{"type":"Point","coordinates":[50.800454,-0.037768]}},{"type":"Feature","properties":{"name":"The Hop Poles in Brighton","id":"10576"},"geometry":{"type":"Point","coordinates":[50.821292,-0.143321]}},{"type":"Feature","properties":{"name":"The Globe in Brighton","id":"10579"},"geometry":{"type":"Point","coordinates":[50.820633,-0.143205]}},{"type":"Feature","properties":{"name":"Saint James in Brighton","id":"10582"},"geometry":{"type":"Point","coordinates":[50.820685,-0.133917]}},{"type":"Feature","properties":{"name":"The Stags Head in Portslade","id":"10584"},"geometry":{"type":"Point","coordinates":[50.843174,-0.220507]}},{"type":"Feature","properties":{"name":"The Joker in Brighton","id":"10588"},"geometry":{"type":"Point","coordinates":[50.833902,-0.139061]}},{"type":"Feature","properties":{"name":"The Fiveways in Brighton","id":"10589"},"geometry":{"type":"Point","coordinates":[50.843454,-0.134453]}},{"type":"Feature","properties":{"name":"The Three Tuns in Biddenham","id":"1058"},"geometry":{"type":"Point","coordinates":[52.138312,-0.508306]}},{"type":"Feature","properties":{"name":"The Sussex in Brighton","id":"10593"},"geometry":{"type":"Point","coordinates":[50.821289,-0.139397]}},{"type":"Feature","properties":{"name":"Sussex Yeoman in Brighton","id":"10594"},"geometry":{"type":"Point","coordinates":[50.82872,-0.142698]}},{"type":"Feature","properties":{"name":"The Round Georges in Brighton","id":"10595"},"geometry":{"type":"Point","coordinates":[50.823632,-0.120463]}},{"type":"Feature","properties":{"name":"The Edinburgh in Brighton","id":"10597"},"geometry":{"type":"Point","coordinates":[50.82768,-0.143487]}},{"type":"Feature","properties":{"name":"The Tiger Moth in Bedford","id":"1059"},"geometry":{"type":"Point","coordinates":[52.158809,-0.458958]}},{"type":"Feature","properties":{"name":"The Three Jolly Butchers in Brighton","id":"10611"},"geometry":{"type":"Point","coordinates":[50.826104,-0.141406]}},{"type":"Feature","properties":{"name":"Victoria Arms in Wilden","id":"1061"},"geometry":{"type":"Point","coordinates":[52.184092,-0.399855]}},{"type":"Feature","properties":{"name":"The Waggon and Horses in Brighton","id":"10620"},"geometry":{"type":"Point","coordinates":[50.824237,-0.139153]}},{"type":"Feature","properties":{"name":"The Independent in Brighton","id":"10621"},"geometry":{"type":"Point","coordinates":[50.826021,-0.127402]}},{"type":"Feature","properties":{"name":"The Wellington in Brighton","id":"10622"},"geometry":{"type":"Point","coordinates":[50.831866,-0.125849]}},{"type":"Feature","properties":{"name":"The Ginger Dog in Brighton","id":"10623"},"geometry":{"type":"Point","coordinates":[50.819579,-0.122112]}},{"type":"Feature","properties":{"name":"The Camelford Arms in Brighton","id":"10627"},"geometry":{"type":"Point","coordinates":[50.820077,-0.132879]}},{"type":"Feature","properties":{"name":"William IV in Brighton","id":"10628"},"geometry":{"type":"Point","coordinates":[50.824203,-0.139775]}},{"type":"Feature","properties":{"name":"The Windmill in Brighton","id":"10630"},"geometry":{"type":"Point","coordinates":[50.82565,-0.148838]}},{"type":"Feature","properties":{"name":"The Fox on the Downs in Brighton","id":"10631"},"geometry":{"type":"Point","coordinates":[50.832095,-0.112545]}},{"type":"Feature","properties":{"name":"The Coopers Arms in Crowborough","id":"10634"},"geometry":{"type":"Point","coordinates":[51.064584,0.150311]}},{"type":"Feature","properties":{"name":"The Crow and Gate in Crowborough","id":"10635"},"geometry":{"type":"Point","coordinates":[51.039939,0.126165]}},{"type":"Feature","properties":{"name":"The Crowborough Cross in Crowborough","id":"10636"},"geometry":{"type":"Point","coordinates":[51.06044,0.161565]}},{"type":"Feature","properties":{"name":"The Kings Arms in Rotherfield","id":"10639"},"geometry":{"type":"Point","coordinates":[51.045785,0.219874]}},{"type":"Feature","properties":{"name":"The Plough and Horses in Jarvis Brook","id":"10640"},"geometry":{"type":"Point","coordinates":[51.042105,0.180727]}},{"type":"Feature","properties":{"name":"Bricklayers Arms in Crowborough","id":"10643"},"geometry":{"type":"Point","coordinates":[51.048119,0.161724]}},{"type":"Feature","properties":{"name":"Arlington Arms in Eastbourne","id":"10655"},"geometry":{"type":"Point","coordinates":[50.784028,0.304411]}},{"type":"Feature","properties":{"name":"The Buccaneer in Eastbourne","id":"10667"},"geometry":{"type":"Point","coordinates":[50.762885,0.284866]}},{"type":"Feature","properties":{"name":"The White Hart in Maulden","id":"1067"},"geometry":{"type":"Point","coordinates":[52.03033,-0.46826]}},{"type":"Feature","properties":{"name":"The Crown and Anchor in Eastbourne","id":"10686"},"geometry":{"type":"Point","coordinates":[50.769036,0.294377]}},{"type":"Feature","properties":{"name":"The White Hart in Flitton","id":"1068"},"geometry":{"type":"Point","coordinates":[52.010807,-0.458132]}},{"type":"Feature","properties":{"name":"The Dolphin in Eastbourne","id":"10693"},"geometry":{"type":"Point","coordinates":[50.766315,0.279368]}},{"type":"Feature","properties":{"name":"Bath Brew House in Bath","id":"106"},"geometry":{"type":"Point","coordinates":[51.381238,-2.365238]}},{"type":"Feature","properties":{"name":"The Gildredge in Eastbourne","id":"10705"},"geometry":{"type":"Point","coordinates":[50.769063,0.281782]}},{"type":"Feature","properties":{"name":"The White Horse in Bedford","id":"1070"},"geometry":{"type":"Point","coordinates":[52.138947,-0.444093]}},{"type":"Feature","properties":{"name":"The Hart in Eastbourne","id":"10714"},"geometry":{"type":"Point","coordinates":[50.771165,0.289147]}},{"type":"Feature","properties":{"name":"The Eagle in Eastbourne","id":"10718"},"geometry":{"type":"Point","coordinates":[50.766308,0.281224]}},{"type":"Feature","properties":{"name":"Hurst Arms in Eastbourne","id":"10720"},"geometry":{"type":"Point","coordinates":[50.778521,0.265195]}},{"type":"Feature","properties":{"name":"The Kings Arms in Eastbourne","id":"10727"},"geometry":{"type":"Point","coordinates":[50.775066,0.296276]}},{"type":"Feature","properties":{"name":"The Lamb in Eastbourne","id":"10728"},"geometry":{"type":"Point","coordinates":[50.7727,0.266834]}},{"type":"Feature","properties":{"name":"The White Horse in Husborne Crawley","id":"1072"},"geometry":{"type":"Point","coordinates":[52.011422,-0.601341]}},{"type":"Feature","properties":{"name":"The Marine in Eastbourne","id":"10738"},"geometry":{"type":"Point","coordinates":[50.77146,0.295174]}},{"type":"Feature","properties":{"name":"The Mill in Langney","id":"10743"},"geometry":{"type":"Point","coordinates":[50.802286,0.296308]}},{"type":"Feature","properties":{"name":"The Prince Albert in Eastbourne","id":"10759"},"geometry":{"type":"Point","coordinates":[50.772308,0.268277]}},{"type":"Feature","properties":{"name":"The Town House in Eastbourne","id":"10763"},"geometry":{"type":"Point","coordinates":[50.767815,0.289485]}},{"type":"Feature","properties":{"name":"The Red Lion in Willingdon","id":"10764"},"geometry":{"type":"Point","coordinates":[50.797285,0.251709]}},{"type":"Feature","properties":{"name":"The Rodmill in Eastbourne","id":"10768"},"geometry":{"type":"Point","coordinates":[50.785562,0.267271]}},{"type":"Feature","properties":{"name":"The Woolpack in Wilstead","id":"1076"},"geometry":{"type":"Point","coordinates":[52.081046,-0.448895]}},{"type":"Feature","properties":{"name":"The Plough in Bolnhurst","id":"1077"},"geometry":{"type":"Point","coordinates":[52.215481,-0.40962]}},{"type":"Feature","properties":{"name":"Seven Sisters in Willingdon","id":"10780"},"geometry":{"type":"Point","coordinates":[50.806626,0.252529]}},{"type":"Feature","properties":{"name":"The Plough in Langford","id":"1079"},"geometry":{"type":"Point","coordinates":[52.060637,-0.269878]}},{"type":"Feature","properties":{"name":"The Mill in Rode","id":"107"},"geometry":{"type":"Point","coordinates":[51.287833,-2.285503]}},{"type":"Feature","properties":{"name":"The Brewers Arms in Herstmonceux","id":"10829"},"geometry":{"type":"Point","coordinates":[50.889602,0.324214]}},{"type":"Feature","properties":{"name":"The Pembroke Arms in Biggleswade","id":"1082"},"geometry":{"type":"Point","coordinates":[52.084692,-0.265557]}},{"type":"Feature","properties":{"name":"Kings Head in Hailsham","id":"10836"},"geometry":{"type":"Point","coordinates":[50.857086,0.24985]}},{"type":"Feature","properties":{"name":"The Merry Harriers in Cowbeech","id":"10838"},"geometry":{"type":"Point","coordinates":[50.907713,0.301588]}},{"type":"Feature","properties":{"name":"The Ashburnham Arms in Hastings","id":"10846"},"geometry":{"type":"Point","coordinates":[50.867931,0.602917]}},{"type":"Feature","properties":{"name":"The Tub Man in Hastings","id":"10849"},"geometry":{"type":"Point","coordinates":[50.855508,0.575536]}},{"type":"Feature","properties":{"name":"The Crown in Northill","id":"1084"},"geometry":{"type":"Point","coordinates":[52.104798,-0.322777]}},{"type":"Feature","properties":{"name":"The Carlisle in Hastings","id":"10850"},"geometry":{"type":"Point","coordinates":[50.854856,0.581674]}},{"type":"Feature","properties":{"name":"Cinque Port Arms in Hastings","id":"10853"},"geometry":{"type":"Point","coordinates":[50.857558,0.593728]}},{"type":"Feature","properties":{"name":"The Clown in Hastings","id":"10856"},"geometry":{"type":"Point","coordinates":[50.856358,0.58169]}},{"type":"Feature","properties":{"name":"The Cove in Fairlight","id":"10857"},"geometry":{"type":"Point","coordinates":[50.877045,0.663315]}},{"type":"Feature","properties":{"name":"The Cutter in Hastings","id":"10859"},"geometry":{"type":"Point","coordinates":[50.855831,0.589541]}},{"type":"Feature","properties":{"name":"Dripping Well in Hastings","id":"10861"},"geometry":{"type":"Point","coordinates":[50.855442,0.575398]}},{"type":"Feature","properties":{"name":"The Duke Of Wellington in Hastings","id":"10862"},"geometry":{"type":"Point","coordinates":[50.858215,0.592505]}},{"type":"Feature","properties":{"name":"First In Last Out in Hastings","id":"10865"},"geometry":{"type":"Point","coordinates":[50.85883,0.593283]}},{"type":"Feature","properties":{"name":"The Gardeners Arms in Biggleswade","id":"1086"},"geometry":{"type":"Point","coordinates":[52.09222,-0.259003]}},{"type":"Feature","properties":{"name":"The Hastings Arms in Hastings","id":"10870"},"geometry":{"type":"Point","coordinates":[50.856308,0.590383]}},{"type":"Feature","properties":{"name":"Forbidden Fruits in Hastings","id":"10873"},"geometry":{"type":"Point","coordinates":[50.86099,0.584614]}},{"type":"Feature","properties":{"name":"The London Trader in Hastings","id":"10879"},"geometry":{"type":"Point","coordinates":[50.856148,0.591566]}},{"type":"Feature","properties":{"name":"The Golden Pheasant in Biggleswade","id":"1087"},"geometry":{"type":"Point","coordinates":[52.086956,-0.262931]}},{"type":"Feature","properties":{"name":"The Lord Warden in Hastings","id":"10880"},"geometry":{"type":"Point","coordinates":[50.864806,0.588562]}},{"type":"Feature","properties":{"name":"Millers Arms in Hastings","id":"10883"},"geometry":{"type":"Point","coordinates":[50.876047,0.608558]}},{"type":"Feature","properties":{"name":"Mount Pleasant in Hastings","id":"10884"},"geometry":{"type":"Point","coordinates":[50.865644,0.589943]}},{"type":"Feature","properties":{"name":"Old King John in Hastings","id":"10888"},"geometry":{"type":"Point","coordinates":[50.87388,0.611211]}},{"type":"Feature","properties":{"name":"The Pig in Paradise in Hastings","id":"10889"},"geometry":{"type":"Point","coordinates":[50.85427,0.575296]}},{"type":"Feature","properties":{"name":"The Hare and Hounds in Old Warden","id":"1088"},"geometry":{"type":"Point","coordinates":[52.081122,-0.341747]}},{"type":"Feature","properties":{"name":"Robert De Mortain in Hastings","id":"10895"},"geometry":{"type":"Point","coordinates":[50.882878,0.579942]}},{"type":"Feature","properties":{"name":"Brass Monkey in Hastings","id":"10896"},"geometry":{"type":"Point","coordinates":[50.856168,0.578547]}},{"type":"Feature","properties":{"name":"The Royal Oak in Pett","id":"10898"},"geometry":{"type":"Point","coordinates":[50.894344,0.668356]}},{"type":"Feature","properties":{"name":"The Royal Standard in Hastings","id":"10899"},"geometry":{"type":"Point","coordinates":[50.856317,0.591958]}},{"type":"Feature","properties":{"name":"The Smuggler in Pett Level","id":"10902"},"geometry":{"type":"Point","coordinates":[50.889587,0.687111]}},{"type":"Feature","properties":{"name":"The Stag in Hastings","id":"10904"},"geometry":{"type":"Point","coordinates":[50.858774,0.595225]}},{"type":"Feature","properties":{"name":"The Jenny Lind in Hastings","id":"10907"},"geometry":{"type":"Point","coordinates":[50.857375,0.591357]}},{"type":"Feature","properties":{"name":"Three Oaks in Three Oaks","id":"10908"},"geometry":{"type":"Point","coordinates":[50.902059,0.6152]}},{"type":"Feature","properties":{"name":"The Two Sawyers in Pett","id":"10909"},"geometry":{"type":"Point","coordinates":[50.893916,0.653878]}},{"type":"Feature","properties":{"name":"The March Hare in Dunton","id":"1090"},"geometry":{"type":"Point","coordinates":[52.082876,-0.195932]}},{"type":"Feature","properties":{"name":"The Albion in Hove","id":"10921"},"geometry":{"type":"Point","coordinates":[50.827803,-0.172138]}},{"type":"Feature","properties":{"name":"The Westbourne in Hove","id":"10922"},"geometry":{"type":"Point","coordinates":[50.832789,-0.181875]}},{"type":"Feature","properties":{"name":"The Urchin in Hove","id":"10923"},"geometry":{"type":"Point","coordinates":[50.830348,-0.175089]}},{"type":"Feature","properties":{"name":"The Bow Street Runner in Hove","id":"10924"},"geometry":{"type":"Point","coordinates":[50.825465,-0.160047]}},{"type":"Feature","properties":{"name":"Coopers Cask in Hove","id":"10931"},"geometry":{"type":"Point","coordinates":[50.826102,-0.159382]}},{"type":"Feature","properties":{"name":"The Poets Corner in Hove","id":"10935"},"geometry":{"type":"Point","coordinates":[50.834173,-0.178844]}},{"type":"Feature","properties":{"name":"The Red Lion in Biggleswade","id":"1093"},"geometry":{"type":"Point","coordinates":[52.086972,-0.25946]}},{"type":"Feature","properties":{"name":"The Grenadier in Hove","id":"10941"},"geometry":{"type":"Point","coordinates":[50.844727,-0.194406]}},{"type":"Feature","properties":{"name":"Hangleton Manor in Hove","id":"10942"},"geometry":{"type":"Point","coordinates":[50.848047,-0.205253]}},{"type":"Feature","properties":{"name":"The Blind Busker in Hove","id":"10944"},"geometry":{"type":"Point","coordinates":[50.827429,-0.16723]}},{"type":"Feature","properties":{"name":"The Iron Duke in Hove","id":"10948"},"geometry":{"type":"Point","coordinates":[50.823518,-0.157308]}},{"type":"Feature","properties":{"name":"The Paris House in Hove","id":"10949"},"geometry":{"type":"Point","coordinates":[50.825377,-0.157316]}},{"type":"Feature","properties":{"name":"The Nevill in Hove","id":"10955"},"geometry":{"type":"Point","coordinates":[50.847478,-0.18254]}},{"type":"Feature","properties":{"name":"The Palmeira in Hove","id":"10956"},"geometry":{"type":"Point","coordinates":[50.832152,-0.160042]}},{"type":"Feature","properties":{"name":"The Stoneham in Hove","id":"10957"},"geometry":{"type":"Point","coordinates":[50.833646,-0.186445]}},{"type":"Feature","properties":{"name":"The Better Half in Hove","id":"10959"},"geometry":{"type":"Point","coordinates":[50.825616,-0.175183]}},{"type":"Feature","properties":{"name":"The Rose in Biggleswade","id":"1095"},"geometry":{"type":"Point","coordinates":[52.087028,-0.262255]}},{"type":"Feature","properties":{"name":"Ancient Mariner in Hove","id":"10962"},"geometry":{"type":"Point","coordinates":[50.83524,-0.182746]}},{"type":"Feature","properties":{"name":"The Seafield in Hove","id":"10964"},"geometry":{"type":"Point","coordinates":[50.828102,-0.174818]}},{"type":"Feature","properties":{"name":"The Foragers in Hove","id":"10969"},"geometry":{"type":"Point","coordinates":[50.830231,-0.176285]}},{"type":"Feature","properties":{"name":"The Sussex At Hove in Hove","id":"10970"},"geometry":{"type":"Point","coordinates":[50.825518,-0.176156]}},{"type":"Feature","properties":{"name":"The Sussex Cricketer in Hove","id":"10971"},"geometry":{"type":"Point","coordinates":[50.829672,-0.163673]}},{"type":"Feature","properties":{"name":"The Connaught in Hove","id":"10973"},"geometry":{"type":"Point","coordinates":[50.828317,-0.179174]}},{"type":"Feature","properties":{"name":"The Brewers Arms in Lewes","id":"10984"},"geometry":{"type":"Point","coordinates":[50.872007,0.006844]}},{"type":"Feature","properties":{"name":"The Bull on the Green in Newick","id":"10986"},"geometry":{"type":"Point","coordinates":[50.97371,0.018603]}},{"type":"Feature","properties":{"name":"The Wheatsheaf in Biggleswade","id":"1098"},"geometry":{"type":"Point","coordinates":[52.08934,-0.259421]}},{"type":"Feature","properties":{"name":"The Dorset in Lewes","id":"10990"},"geometry":{"type":"Point","coordinates":[50.875135,0.019054]}},{"type":"Feature","properties":{"name":"Elephant and Castle in Lewes","id":"10991"},"geometry":{"type":"Point","coordinates":[50.874908,0.008609]}},{"type":"Feature","properties":{"name":"The Foresters Arms in East Hoathly","id":"10992"},"geometry":{"type":"Point","coordinates":[50.924306,0.161871]}},{"type":"Feature","properties":{"name":"The Gardeners Arms in Lewes","id":"10995"},"geometry":{"type":"Point","coordinates":[50.8742,0.017938]}},{"type":"Feature","properties":{"name":"Horns Lodge in South Chailey","id":"10998"},"geometry":{"type":"Point","coordinates":[50.946059,-0.020942]}},{"type":"Feature","properties":{"name":"The Jolly Sportsman in East Chiltington","id":"10999"},"geometry":{"type":"Point","coordinates":[50.919491,-0.05027]}},{"type":"Feature","properties":{"name":"Whistle and Flute in Biggleswade","id":"1099"},"geometry":{"type":"Point","coordinates":[52.085354,-0.266053]}},{"type":"Feature","properties":{"name":"The Juggs Arms in Kingston","id":"11000"},"geometry":{"type":"Point","coordinates":[50.857167,-0.021539]}},{"type":"Feature","properties":{"name":"Kings Head in East Hoathly","id":"11001"},"geometry":{"type":"Point","coordinates":[50.925946,0.16594]}},{"type":"Feature","properties":{"name":"The Kings Head in Lewes","id":"11002"},"geometry":{"type":"Point","coordinates":[50.869557,0.007427]}},{"type":"Feature","properties":{"name":"The Kings Head in North Chailey","id":"11003"},"geometry":{"type":"Point","coordinates":[50.971724,-0.019723]}},{"type":"Feature","properties":{"name":"The Lamb in Lewes","id":"11005"},"geometry":{"type":"Point","coordinates":[50.873935,0.009867]}},{"type":"Feature","properties":{"name":"Lansdown Arms in Lewes","id":"11006"},"geometry":{"type":"Point","coordinates":[50.871993,0.011479]}},{"type":"Feature","properties":{"name":"The Lewes Arms in Lewes","id":"11007"},"geometry":{"type":"Point","coordinates":[50.874028,0.009398]}},{"type":"Feature","properties":{"name":"Pelham Arms in Lewes","id":"11008"},"geometry":{"type":"Point","coordinates":[50.872403,0.002507]}},{"type":"Feature","properties":{"name":"The White Hart in Biggleswade","id":"1100"},"geometry":{"type":"Point","coordinates":[52.086533,-0.26299]}},{"type":"Feature","properties":{"name":"Rights of Man in Lewes","id":"11011"},"geometry":{"type":"Point","coordinates":[50.872801,0.009312]}},{"type":"Feature","properties":{"name":"The Royal Oak in Lewes","id":"11013"},"geometry":{"type":"Point","coordinates":[50.872928,0.01071]}},{"type":"Feature","properties":{"name":"The Royal Oak in Newick","id":"11015"},"geometry":{"type":"Point","coordinates":[50.972635,0.020058]}},{"type":"Feature","properties":{"name":"Tally Ho in Lewes","id":"11019"},"geometry":{"type":"Point","coordinates":[50.879235,-0.000726]}},{"type":"Feature","properties":{"name":"The Volunteer in Lewes","id":"11021"},"geometry":{"type":"Point","coordinates":[50.874454,0.01439]}},{"type":"Feature","properties":{"name":"The Engineer in Newhaven","id":"11029"},"geometry":{"type":"Point","coordinates":[50.792487,0.056047]}},{"type":"Feature","properties":{"name":"The Wrestlers in Langford","id":"1102"},"geometry":{"type":"Point","coordinates":[52.054951,-0.272083]}},{"type":"Feature","properties":{"name":"The Hampden Arms in South Heighton","id":"11031"},"geometry":{"type":"Point","coordinates":[50.806638,0.057825]}},{"type":"Feature","properties":{"name":"The Prince Of Wales in Newhaven","id":"11035"},"geometry":{"type":"Point","coordinates":[50.792214,0.050602]}},{"type":"Feature","properties":{"name":"The Smugglers Rest in Peacehaven","id":"11039"},"geometry":{"type":"Point","coordinates":[50.795743,-0.022552]}},{"type":"Feature","properties":{"name":"The Yorkshire Grey in Biggleswade","id":"1103"},"geometry":{"type":"Point","coordinates":[52.082034,-0.250985]}},{"type":"Feature","properties":{"name":"The Good Companions in Peacehaven","id":"11043"},"geometry":{"type":"Point","coordinates":[50.797374,0.000726]}},{"type":"Feature","properties":{"name":"The Sussex Coaster in Peacehaven","id":"11044"},"geometry":{"type":"Point","coordinates":[50.788881,0.012662]}},{"type":"Feature","properties":{"name":"The Moorings in Pevensey Bay","id":"11049"},"geometry":{"type":"Point","coordinates":[50.812524,0.354502]}},{"type":"Feature","properties":{"name":"The Heron in Westham","id":"11050"},"geometry":{"type":"Point","coordinates":[50.817559,0.327328]}},{"type":"Feature","properties":{"name":"The Red Lion in Stone Cross","id":"11052"},"geometry":{"type":"Point","coordinates":[50.816707,0.291472]}},{"type":"Feature","properties":{"name":"The Dinkum in Polegate","id":"11056"},"geometry":{"type":"Point","coordinates":[50.82257,0.244483]}},{"type":"Feature","properties":{"name":"The Giants Rest in Wilmington","id":"11057"},"geometry":{"type":"Point","coordinates":[50.821878,0.193655]}},{"type":"Feature","properties":{"name":"The Junction in Polegate","id":"11058"},"geometry":{"type":"Point","coordinates":[50.821651,0.251076]}},{"type":"Feature","properties":{"name":"The Salehurst Halt in Robertsbridge","id":"11066"},"geometry":{"type":"Point","coordinates":[50.990677,0.49005]}},{"type":"Feature","properties":{"name":"The White Hart in Staplecross","id":"11068"},"geometry":{"type":"Point","coordinates":[50.962358,0.529485]}},{"type":"Feature","properties":{"name":"Bedford Arms in Rye","id":"11069"},"geometry":{"type":"Point","coordinates":[50.953817,0.735976]}},{"type":"Feature","properties":{"name":"Camber Castle in Camber","id":"11072"},"geometry":{"type":"Point","coordinates":[50.935102,0.799137]}},{"type":"Feature","properties":{"name":"The Cock in Peasmarsh","id":"11074"},"geometry":{"type":"Point","coordinates":[50.975318,0.684242]}},{"type":"Feature","properties":{"name":"The George in Rye","id":"11079"},"geometry":{"type":"Point","coordinates":[50.950951,0.733509]}},{"type":"Feature","properties":{"name":"The Globe in Rye","id":"11080"},"geometry":{"type":"Point","coordinates":[50.955912,0.735869]}},{"type":"Feature","properties":{"name":"The Hare and Hounds in Rye Foreign","id":"11081"},"geometry":{"type":"Point","coordinates":[50.971224,0.705893]}},{"type":"Feature","properties":{"name":"Inkerman Arms in Rye","id":"11084"},"geometry":{"type":"Point","coordinates":[50.938805,0.75996]}},{"type":"Feature","properties":{"name":"The Pipe Makers Arms in Rye","id":"11088"},"geometry":{"type":"Point","coordinates":[50.950546,0.729947]}},{"type":"Feature","properties":{"name":"The Queens Head in Rye","id":"11089"},"geometry":{"type":"Point","coordinates":[50.95329,0.735526]}},{"type":"Feature","properties":{"name":"The Rainbow Trout in Broad Oak","id":"11090"},"geometry":{"type":"Point","coordinates":[50.948815,0.597231]}},{"type":"Feature","properties":{"name":"Rose and Crown in Beckley","id":"11091"},"geometry":{"type":"Point","coordinates":[50.981892,0.621296]}},{"type":"Feature","properties":{"name":"The Bell in Toddington","id":"1109"},"geometry":{"type":"Point","coordinates":[51.949714,-0.532708]}},{"type":"Feature","properties":{"name":"Cinque Ports in Seaford","id":"11109"},"geometry":{"type":"Point","coordinates":[50.771631,0.104032]}},{"type":"Feature","properties":{"name":"The Shore in Seaford","id":"11112"},"geometry":{"type":"Point","coordinates":[50.772379,0.100389]}},{"type":"Feature","properties":{"name":"The Old Plough in Seaford","id":"11114"},"geometry":{"type":"Point","coordinates":[50.77138,0.101285]}},{"type":"Feature","properties":{"name":"The Seven Sisters in Seaford","id":"11115"},"geometry":{"type":"Point","coordinates":[50.778757,0.115482]}},{"type":"Feature","properties":{"name":"The Wellington in Seaford","id":"11117"},"geometry":{"type":"Point","coordinates":[50.770471,0.10162]}},{"type":"Feature","properties":{"name":"The Clarence in St. Leonards-On-Sea","id":"11122"},"geometry":{"type":"Point","coordinates":[50.867447,0.55597]}},{"type":"Feature","properties":{"name":"The Comet in St. Leonards-On-Sea","id":"11125"},"geometry":{"type":"Point","coordinates":[50.855846,0.530302]}},{"type":"Feature","properties":{"name":"The Duke in St. Leonards-On-Sea","id":"11126"},"geometry":{"type":"Point","coordinates":[50.870554,0.556907]}},{"type":"Feature","properties":{"name":"Hollington Oak in St. Leonards-On-Sea","id":"11133"},"geometry":{"type":"Point","coordinates":[50.871469,0.540009]}},{"type":"Feature","properties":{"name":"Horse and Groom in St. Leonards-On-Sea","id":"11134"},"geometry":{"type":"Point","coordinates":[50.851786,0.557148]}},{"type":"Feature","properties":{"name":"The Nags Head in St. Leonards-On-Sea","id":"11136"},"geometry":{"type":"Point","coordinates":[50.852273,0.558009]}},{"type":"Feature","properties":{"name":"The Dripping Spring in St. Leonards-On-Sea","id":"11137"},"geometry":{"type":"Point","coordinates":[50.862431,0.558497]}},{"type":"Feature","properties":{"name":"Old England in St. Leonards-On-Sea","id":"11139"},"geometry":{"type":"Point","coordinates":[50.853184,0.560131]}},{"type":"Feature","properties":{"name":"Paddy McGintys in St. Leonards-On-Sea","id":"11143"},"geometry":{"type":"Point","coordinates":[50.873444,0.553184]}},{"type":"Feature","properties":{"name":"The Royal Albert in St. Leonards-On-Sea","id":"11144"},"geometry":{"type":"Point","coordinates":[50.877084,0.550593]}},{"type":"Feature","properties":{"name":"The Carpenters Arms in Harlington","id":"1114"},"geometry":{"type":"Point","coordinates":[51.962223,-0.492517]}},{"type":"Feature","properties":{"name":"The Tower in St. Leonards-On-Sea","id":"11150"},"geometry":{"type":"Point","coordinates":[50.862167,0.557365]}},{"type":"Feature","properties":{"name":"The St Leonard in St. Leonards-On-Sea","id":"11153"},"geometry":{"type":"Point","coordinates":[50.853,0.559795]}},{"type":"Feature","properties":{"name":"The Welcome Stranger in St. Leonards-On-Sea","id":"11154"},"geometry":{"type":"Point","coordinates":[50.869339,0.556955]}},{"type":"Feature","properties":{"name":"The Rajdutt in Uckfield","id":"11159"},"geometry":{"type":"Point","coordinates":[50.953951,0.114733]}},{"type":"Feature","properties":{"name":"The Brickmakers Arms in Uckfield","id":"11161"},"geometry":{"type":"Point","coordinates":[50.956094,0.104057]}},{"type":"Feature","properties":{"name":"Halfway House in Isfield","id":"11165"},"geometry":{"type":"Point","coordinates":[50.927975,0.074263]}},{"type":"Feature","properties":{"name":"The Hare and Hounds in Framfield","id":"11166"},"geometry":{"type":"Point","coordinates":[50.963557,0.128059]}},{"type":"Feature","properties":{"name":"The White Lion in Dunstable","id":"1116"},"geometry":{"type":"Point","coordinates":[51.901823,-0.545509]}},{"type":"Feature","properties":{"name":"The Rose and Crown in Fletching","id":"11170"},"geometry":{"type":"Point","coordinates":[50.994286,0.034864]}},{"type":"Feature","properties":{"name":"The Broadway in Uckfield","id":"11172"},"geometry":{"type":"Point","coordinates":[50.973963,0.097645]}},{"type":"Feature","properties":{"name":"The Royal Oak in Flimwell","id":"11179"},"geometry":{"type":"Point","coordinates":[51.055969,0.446347]}},{"type":"Feature","properties":{"name":"Chequers in Houghton Regis","id":"1117"},"geometry":{"type":"Point","coordinates":[51.906177,-0.513938]}},{"type":"Feature","properties":{"name":"The White Hart in Wadhurst","id":"11183"},"geometry":{"type":"Point","coordinates":[51.062019,0.339315]}},{"type":"Feature","properties":{"name":"The Queens Head in Icklesham","id":"11186"},"geometry":{"type":"Point","coordinates":[50.918706,0.670434]}},{"type":"Feature","properties":{"name":"The Cross Keys in Totternhoe","id":"1118"},"geometry":{"type":"Point","coordinates":[51.886759,-0.577715]}},{"type":"Feature","properties":{"name":"The Crown in Houghton Regis","id":"1119"},"geometry":{"type":"Point","coordinates":[51.905328,-0.51541]}},{"type":"Feature","properties":{"name":"The Castle Mayne in Basildon","id":"11208"},"geometry":{"type":"Point","coordinates":[51.563892,0.445384]}},{"type":"Feature","properties":{"name":"The Wheatsheaf in Dunstable","id":"1120"},"geometry":{"type":"Point","coordinates":[51.889852,-0.525783]}},{"type":"Feature","properties":{"name":"The Crane in Basildon","id":"11210"},"geometry":{"type":"Point","coordinates":[51.582536,0.493311]}},{"type":"Feature","properties":{"name":"The Crown in Langdon Hills","id":"11211"},"geometry":{"type":"Point","coordinates":[51.552736,0.421314]}},{"type":"Feature","properties":{"name":"The Four Seasons in Laindon","id":"11214"},"geometry":{"type":"Point","coordinates":[51.575548,0.410871]}},{"type":"Feature","properties":{"name":"The Jolly Friar in Basildon","id":"11216"},"geometry":{"type":"Point","coordinates":[51.582253,0.486508]}},{"type":"Feature","properties":{"name":"Noak Bridge in Noak Bridge","id":"11221"},"geometry":{"type":"Point","coordinates":[51.588434,0.43864]}},{"type":"Feature","properties":{"name":"The Edge in Basildon","id":"11222"},"geometry":{"type":"Point","coordinates":[51.570579,0.457216]}},{"type":"Feature","properties":{"name":"The Plough and Tractor in Basildon","id":"11223"},"geometry":{"type":"Point","coordinates":[51.572444,0.441095]}},{"type":"Feature","properties":{"name":"Bread and Cheese in Benfleet","id":"11227"},"geometry":{"type":"Point","coordinates":[51.562341,0.575828]}},{"type":"Feature","properties":{"name":"The Castle in Hadleigh","id":"11228"},"geometry":{"type":"Point","coordinates":[51.552899,0.608453]}},{"type":"Feature","properties":{"name":"The Ewe and Lamb in Dunstable","id":"1122"},"geometry":{"type":"Point","coordinates":[51.888954,-0.498526]}},{"type":"Feature","properties":{"name":"The Half Crown in Benfleet","id":"11232"},"geometry":{"type":"Point","coordinates":[51.545414,0.562276]}},{"type":"Feature","properties":{"name":"The Hoy and Helmet in Benfleet","id":"11233"},"geometry":{"type":"Point","coordinates":[51.545654,0.562233]}},{"type":"Feature","properties":{"name":"White Hart in Thundersley","id":"11235"},"geometry":{"type":"Point","coordinates":[51.568824,0.582011]}},{"type":"Feature","properties":{"name":"Woodmans Arms in Thundersley","id":"11236"},"geometry":{"type":"Point","coordinates":[51.569641,0.595278]}},{"type":"Feature","properties":{"name":"The Zach Willsher in Benfleet","id":"11237"},"geometry":{"type":"Point","coordinates":[51.571681,0.560667]}},{"type":"Feature","properties":{"name":"The Dukes Head in Little Burstead","id":"11240"},"geometry":{"type":"Point","coordinates":[51.606992,0.412184]}},{"type":"Feature","properties":{"name":"The Chequers in Billericay","id":"11241"},"geometry":{"type":"Point","coordinates":[51.626089,0.418446]}},{"type":"Feature","properties":{"name":"Coach and Horses in Billericay","id":"11242"},"geometry":{"type":"Point","coordinates":[51.624828,0.418202]}},{"type":"Feature","properties":{"name":"The Forge in Billericay","id":"11244"},"geometry":{"type":"Point","coordinates":[51.637285,0.413778]}},{"type":"Feature","properties":{"name":"Fox and Hounds in Ramsden Heath","id":"11245"},"geometry":{"type":"Point","coordinates":[51.626118,0.480909]}},{"type":"Feature","properties":{"name":"The Pilgrim in Billericay","id":"11247"},"geometry":{"type":"Point","coordinates":[51.63163,0.409069]}},{"type":"Feature","properties":{"name":"The Ivory Rooms in Billericay","id":"11248"},"geometry":{"type":"Point","coordinates":[51.620336,0.415796]}},{"type":"Feature","properties":{"name":"The White Horse in Ramsden Heath","id":"11251"},"geometry":{"type":"Point","coordinates":[51.635985,0.473699]}},{"type":"Feature","properties":{"name":"The Angel in Braintree","id":"11253"},"geometry":{"type":"Point","coordinates":[51.885961,0.556933]}},{"type":"Feature","properties":{"name":"The Boars Head in Braintree","id":"11257"},"geometry":{"type":"Point","coordinates":[51.877749,0.548822]}},{"type":"Feature","properties":{"name":"The Bull in Braintree","id":"11259"},"geometry":{"type":"Point","coordinates":[51.878133,0.552148]}},{"type":"Feature","properties":{"name":"The First and Last in Dunstable","id":"1125"},"geometry":{"type":"Point","coordinates":[51.886961,-0.512403]}},{"type":"Feature","properties":{"name":"The Eagle in Braintree","id":"11262"},"geometry":{"type":"Point","coordinates":[51.880058,0.560681]}},{"type":"Feature","properties":{"name":"Hare and Hounds in Braintree","id":"11266"},"geometry":{"type":"Point","coordinates":[51.909926,0.578331]}},{"type":"Feature","properties":{"name":"Horse and Groom in Braintree","id":"11267"},"geometry":{"type":"Point","coordinates":[51.879743,0.549557]}},{"type":"Feature","properties":{"name":"King William IV in Great Notley","id":"11269"},"geometry":{"type":"Point","coordinates":[51.866486,0.539611]}},{"type":"Feature","properties":{"name":"The Glider in Dunstable","id":"1126"},"geometry":{"type":"Point","coordinates":[51.874195,-0.513288]}},{"type":"Feature","properties":{"name":"The Nags Head in Braintree","id":"11274"},"geometry":{"type":"Point","coordinates":[51.878305,0.552792]}},{"type":"Feature","properties":{"name":"The Onley Arms in Stisted","id":"11275"},"geometry":{"type":"Point","coordinates":[51.892087,0.614403]}},{"type":"Feature","properties":{"name":"The Orange Tree in Braintree","id":"11276"},"geometry":{"type":"Point","coordinates":[51.876173,0.574014]}},{"type":"Feature","properties":{"name":"The Globe in Dunstable","id":"1127"},"geometry":{"type":"Point","coordinates":[51.888451,-0.526742]}},{"type":"Feature","properties":{"name":"The Swan in Rayne","id":"11287"},"geometry":{"type":"Point","coordinates":[51.876009,0.513709]}},{"type":"Feature","properties":{"name":"The Swan in Braintree","id":"11288"},"geometry":{"type":"Point","coordinates":[51.879221,0.551349]}},{"type":"Feature","properties":{"name":"The White Hart in Braintree","id":"11291"},"geometry":{"type":"Point","coordinates":[51.879936,0.551188]}},{"type":"Feature","properties":{"name":"Wagon and Horses in Braintree","id":"11296"},"geometry":{"type":"Point","coordinates":[51.876482,0.553066]}},{"type":"Feature","properties":{"name":"The Welsh Princess in Rayne","id":"11297"},"geometry":{"type":"Point","coordinates":[51.875482,0.509306]}},{"type":"Feature","properties":{"name":"The Willows Freehouse in Cressing","id":"11299"},"geometry":{"type":"Point","coordinates":[51.856267,0.602231]}},{"type":"Feature","properties":{"name":"The Harvest Home in Houghton Regis","id":"1129"},"geometry":{"type":"Point","coordinates":[51.912832,-0.510638]}},{"type":"Feature","properties":{"name":"The New Crown in Bath","id":"112"},"geometry":{"type":"Point","coordinates":[51.385766,-2.388719]}},{"type":"Feature","properties":{"name":"The Alma Arms in Navestockside","id":"11301"},"geometry":{"type":"Point","coordinates":[51.640005,0.22513]}},{"type":"Feature","properties":{"name":"The Black Horse in Pilgrims Hatch","id":"11302"},"geometry":{"type":"Point","coordinates":[51.637846,0.278615]}},{"type":"Feature","properties":{"name":"Boars Head in Herongate","id":"11304"},"geometry":{"type":"Point","coordinates":[51.594783,0.353837]}},{"type":"Feature","properties":{"name":"The Brave Nelson in Brentwood","id":"11305"},"geometry":{"type":"Point","coordinates":[51.608836,0.306994]}},{"type":"Feature","properties":{"name":"Bricklayers Arms in Stondon Massey","id":"11308"},"geometry":{"type":"Point","coordinates":[51.681242,0.290385]}},{"type":"Feature","properties":{"name":"The Bull in Brentwood","id":"11309"},"geometry":{"type":"Point","coordinates":[51.611702,0.273593]}},{"type":"Feature","properties":{"name":"The Chequers in Brentwood","id":"11311"},"geometry":{"type":"Point","coordinates":[51.633121,0.352629]}},{"type":"Feature","properties":{"name":"Cherry Tree in Brentwood","id":"11312"},"geometry":{"type":"Point","coordinates":[51.606144,0.299141]}},{"type":"Feature","properties":{"name":"The Eagle and Child in Shenfield","id":"11314"},"geometry":{"type":"Point","coordinates":[51.6305,0.321699]}},{"type":"Feature","properties":{"name":"The Eagle in Kelvedon Hatch","id":"11315"},"geometry":{"type":"Point","coordinates":[51.664357,0.271482]}},{"type":"Feature","properties":{"name":"Essex Arms in Brentwood","id":"11316"},"geometry":{"type":"Point","coordinates":[51.612873,0.299227]}},{"type":"Feature","properties":{"name":"Halfway House in West Horndon","id":"11317"},"geometry":{"type":"Point","coordinates":[51.579849,0.355577]}},{"type":"Feature","properties":{"name":"The Gardeners Arms in Brentwood","id":"11320"},"geometry":{"type":"Point","coordinates":[51.618975,0.298647]}},{"type":"Feature","properties":{"name":"The Hutton in Brentwood","id":"11325"},"geometry":{"type":"Point","coordinates":[51.631696,0.333466]}},{"type":"Feature","properties":{"name":"The Willow in Doddinghurst","id":"11328"},"geometry":{"type":"Point","coordinates":[51.667774,0.298065]}},{"type":"Feature","properties":{"name":"The Nags Head in Brentwood","id":"11329"},"geometry":{"type":"Point","coordinates":[51.610648,0.271568]}},{"type":"Feature","properties":{"name":"The Horse and Jockey in Kensworth","id":"1132"},"geometry":{"type":"Point","coordinates":[51.859032,-0.480829]}},{"type":"Feature","properties":{"name":"The Plough in Mountnessing","id":"11331"},"geometry":{"type":"Point","coordinates":[51.655435,0.357501]}},{"type":"Feature","properties":{"name":"The Rising Sun in Brentwood","id":"11334"},"geometry":{"type":"Point","coordinates":[51.624944,0.300729]}},{"type":"Feature","properties":{"name":"The Robin in Brentwood","id":"11335"},"geometry":{"type":"Point","coordinates":[51.628239,0.294895]}},{"type":"Feature","properties":{"name":"The Shepherd in Kelvedon Hatch","id":"11338"},"geometry":{"type":"Point","coordinates":[51.662985,0.276608]}},{"type":"Feature","properties":{"name":"The Spread Eagle in Brentwood","id":"11340"},"geometry":{"type":"Point","coordinates":[51.618132,0.303559]}},{"type":"Feature","properties":{"name":"Thatchers Arms in Great Warley","id":"11342"},"geometry":{"type":"Point","coordinates":[51.593014,0.284268]}},{"type":"Feature","properties":{"name":"The White Horse in Coxtie Green","id":"11346"},"geometry":{"type":"Point","coordinates":[51.64038,0.258371]}},{"type":"Feature","properties":{"name":"The Bald Faced Stag in Buckhurst Hill","id":"11348"},"geometry":{"type":"Point","coordinates":[51.624222,0.031231]}},{"type":"Feature","properties":{"name":"The Kings Arms in Houghton Regis","id":"1134"},"geometry":{"type":"Point","coordinates":[51.904211,-0.521501]}},{"type":"Feature","properties":{"name":"Warren Wood in Buckhurst Hill","id":"11353"},"geometry":{"type":"Point","coordinates":[51.633655,0.031671]}},{"type":"Feature","properties":{"name":"The New Welcome Sailor in Burnham-On-Crouch","id":"11355"},"geometry":{"type":"Point","coordinates":[51.630232,0.815455]}},{"type":"Feature","properties":{"name":"The Bird in Hand in Dunstable","id":"1135"},"geometry":{"type":"Point","coordinates":[51.893499,-0.531957]}},{"type":"Feature","properties":{"name":"The Haystack in Canvey Island","id":"11363"},"geometry":{"type":"Point","coordinates":[51.52056,0.592532]}},{"type":"Feature","properties":{"name":"Windjammer in Canvey Island","id":"11367"},"geometry":{"type":"Point","coordinates":[51.513151,0.600855]}},{"type":"Feature","properties":{"name":"The Anchor in Chelmsford","id":"11368"},"geometry":{"type":"Point","coordinates":[51.728157,0.46915]}},{"type":"Feature","properties":{"name":"The Anchor in Danbury","id":"11369"},"geometry":{"type":"Point","coordinates":[51.718181,0.598665]}},{"type":"Feature","properties":{"name":"The Angel in Broomfield","id":"11370"},"geometry":{"type":"Point","coordinates":[51.762324,0.473531]}},{"type":"Feature","properties":{"name":"The Bakers Arms in Danbury","id":"11371"},"geometry":{"type":"Point","coordinates":[51.716487,0.582962]}},{"type":"Feature","properties":{"name":"The Bay Horse in Chelmsford","id":"11372"},"geometry":{"type":"Point","coordinates":[51.727757,0.469528]}},{"type":"Feature","properties":{"name":"The Bell in Rettendon Common","id":"11376"},"geometry":{"type":"Point","coordinates":[51.655013,0.548458]}},{"type":"Feature","properties":{"name":"The Bell in Purleigh","id":"11377"},"geometry":{"type":"Point","coordinates":[51.686217,0.662523]}},{"type":"Feature","properties":{"name":"The Bell in Danbury","id":"11378"},"geometry":{"type":"Point","coordinates":[51.718467,0.566096]}},{"type":"Feature","properties":{"name":"Bird In Hand in Chelmsford","id":"11379"},"geometry":{"type":"Point","coordinates":[51.730314,0.46428]}},{"type":"Feature","properties":{"name":"The Black Bull in Chelmsford","id":"11380"},"geometry":{"type":"Point","coordinates":[51.740191,0.454721]}},{"type":"Feature","properties":{"name":"Blue Lion in Great Baddow","id":"11382"},"geometry":{"type":"Point","coordinates":[51.718375,0.498988]}},{"type":"Feature","properties":{"name":"Brewers Arms in Bicknacre","id":"11385"},"geometry":{"type":"Point","coordinates":[51.689549,0.585492]}},{"type":"Feature","properties":{"name":"The Clay Pigeon in Chelmsford","id":"11390"},"geometry":{"type":"Point","coordinates":[51.710669,0.467019]}},{"type":"Feature","properties":{"name":"The Blue Bridge in Writtle","id":"11392"},"geometry":{"type":"Point","coordinates":[51.729673,0.430183]}},{"type":"Feature","properties":{"name":"The Compasses in Chelmsford","id":"11394"},"geometry":{"type":"Point","coordinates":[51.744475,0.466446]}},{"type":"Feature","properties":{"name":"The Cross Keys in Hatfield Peverel","id":"11397"},"geometry":{"type":"Point","coordinates":[51.770662,0.607377]}},{"type":"Feature","properties":{"name":"The Curlew in South Woodham Ferrers","id":"11399"},"geometry":{"type":"Point","coordinates":[51.638783,0.606928]}},{"type":"Feature","properties":{"name":"The Oddfellows Arms in Toddington","id":"1139"},"geometry":{"type":"Point","coordinates":[51.949079,-0.531527]}},{"type":"Feature","properties":{"name":"The Dog and Partridge in Great Leighs","id":"11401"},"geometry":{"type":"Point","coordinates":[51.832811,0.510909]}},{"type":"Feature","properties":{"name":"Duke Of Wellington in Hatfield Peverel","id":"11402"},"geometry":{"type":"Point","coordinates":[51.777492,0.599377]}},{"type":"Feature","properties":{"name":"Eagle and Hind in Chelmsford","id":"11403"},"geometry":{"type":"Point","coordinates":[51.716101,0.473055]}},{"type":"Feature","properties":{"name":"The Eagle in Chelmsford","id":"11404"},"geometry":{"type":"Point","coordinates":[51.698076,0.466261]}},{"type":"Feature","properties":{"name":"The Endeavour in Chelmsford","id":"11405"},"geometry":{"type":"Point","coordinates":[51.742801,0.495178]}},{"type":"Feature","properties":{"name":"The Flyer in Chelmsford","id":"11407"},"geometry":{"type":"Point","coordinates":[51.755209,0.445976]}},{"type":"Feature","properties":{"name":"The Fox and Goose in Cooksmill Green","id":"11408"},"geometry":{"type":"Point","coordinates":[51.728919,0.440207]}},{"type":"Feature","properties":{"name":"Fox and Hounds in Cock Clarks","id":"11409"},"geometry":{"type":"Point","coordinates":[51.693707,0.626263]}},{"type":"Feature","properties":{"name":"Fox and Raven in Chelmsford","id":"11410"},"geometry":{"type":"Point","coordinates":[51.731256,0.497584]}},{"type":"Feature","properties":{"name":"The Rose and Crown in Great Waltham","id":"11412"},"geometry":{"type":"Point","coordinates":[51.790051,0.465346]}},{"type":"Feature","properties":{"name":"The Hare in Roxwell","id":"11416"},"geometry":{"type":"Point","coordinates":[51.74833,0.402483]}},{"type":"Feature","properties":{"name":"Horse and Groom in Writtle","id":"11417"},"geometry":{"type":"Point","coordinates":[51.741321,0.434096]}},{"type":"Feature","properties":{"name":"Huntsman and Hounds in Althorne","id":"11418"},"geometry":{"type":"Point","coordinates":[51.670044,0.755026]}},{"type":"Feature","properties":{"name":"The Rose and Crown in Writtle","id":"11419"},"geometry":{"type":"Point","coordinates":[51.730709,0.426084]}},{"type":"Feature","properties":{"name":"The Kings Arms in Broomfield","id":"11420"},"geometry":{"type":"Point","coordinates":[51.766097,0.471577]}},{"type":"Feature","properties":{"name":"The Kings Head in Great Baddow","id":"11421"},"geometry":{"type":"Point","coordinates":[51.718168,0.503233]}},{"type":"Feature","properties":{"name":"The Leather Bottle in Pleshey","id":"11422"},"geometry":{"type":"Point","coordinates":[51.804842,0.414394]}},{"type":"Feature","properties":{"name":"The Lion in Latchingdon","id":"11423"},"geometry":{"type":"Point","coordinates":[51.671391,0.720393]}},{"type":"Feature","properties":{"name":"The Nags Head in Chelmsford","id":"11426"},"geometry":{"type":"Point","coordinates":[51.730421,0.474583]}},{"type":"Feature","properties":{"name":"The Norton in Cold Norton","id":"11428"},"geometry":{"type":"Point","coordinates":[51.672028,0.672307]}},{"type":"Feature","properties":{"name":"The Oddfellows Arms in Chelmsford","id":"11429"},"geometry":{"type":"Point","coordinates":[51.73632,0.482794]}},{"type":"Feature","properties":{"name":"Old Red Lion in Houghton Regis","id":"1142"},"geometry":{"type":"Point","coordinates":[51.909427,-0.527442]}},{"type":"Feature","properties":{"name":"The Orange Tree in Chelmsford","id":"11430"},"geometry":{"type":"Point","coordinates":[51.728942,0.465781]}},{"type":"Feature","properties":{"name":"The Plough in Chelmsford","id":"11431"},"geometry":{"type":"Point","coordinates":[51.736436,0.46808]}},{"type":"Feature","properties":{"name":"Pig and Whistle in Chignal Smealey","id":"11433"},"geometry":{"type":"Point","coordinates":[51.774196,0.429095]}},{"type":"Feature","properties":{"name":"The Prince Of Wales in Stow Maries","id":"11437"},"geometry":{"type":"Point","coordinates":[51.662854,0.645722]}},{"type":"Feature","properties":{"name":"The Queens Head in Boreham","id":"11438"},"geometry":{"type":"Point","coordinates":[51.758006,0.543101]}},{"type":"Feature","properties":{"name":"The Golden Fleece in Chelmsford","id":"11439"},"geometry":{"type":"Point","coordinates":[51.734842,0.471489]}},{"type":"Feature","properties":{"name":"Red Beret in Chelmsford","id":"11440"},"geometry":{"type":"Point","coordinates":[51.749351,0.454001]}},{"type":"Feature","properties":{"name":"The Lion in Boreham","id":"11441"},"geometry":{"type":"Point","coordinates":[51.758064,0.530395]}},{"type":"Feature","properties":{"name":"The Red Lion in Chelmsford","id":"11442"},"geometry":{"type":"Point","coordinates":[51.737699,0.485115]}},{"type":"Feature","properties":{"name":"The New London in Chelmsford","id":"11443"},"geometry":{"type":"Point","coordinates":[51.72849,0.467262]}},{"type":"Feature","properties":{"name":"Rising Sun in Chelmsford","id":"11445"},"geometry":{"type":"Point","coordinates":[51.723329,0.461149]}},{"type":"Feature","properties":{"name":"Royal Steamer in Chelmsford","id":"11448"},"geometry":{"type":"Point","coordinates":[51.737407,0.467348]}},{"type":"Feature","properties":{"name":"The Running Mare in Chelmsford","id":"11449"},"geometry":{"type":"Point","coordinates":[51.702738,0.46312]}},{"type":"Feature","properties":{"name":"The Old Sun in Harlington","id":"1144"},"geometry":{"type":"Point","coordinates":[51.961309,-0.492507]}},{"type":"Feature","properties":{"name":"The Ship in Chelmsford","id":"11451"},"geometry":{"type":"Point","coordinates":[51.737712,0.46591]}},{"type":"Feature","properties":{"name":"The Sir Evelyn Wood in Chelmsford","id":"11453"},"geometry":{"type":"Point","coordinates":[51.719916,0.454967]}},{"type":"Feature","properties":{"name":"The Six Bells in Boreham","id":"11454"},"geometry":{"type":"Point","coordinates":[51.764401,0.54804]}},{"type":"Feature","properties":{"name":"The Gardeners in Springfield","id":"11458"},"geometry":{"type":"Point","coordinates":[51.753927,0.494256]}},{"type":"Feature","properties":{"name":"The Square and Compasses in Fairstead","id":"11459"},"geometry":{"type":"Point","coordinates":[51.816159,0.534245]}},{"type":"Feature","properties":{"name":"Star and Garter in Chelmsford","id":"11461"},"geometry":{"type":"Point","coordinates":[51.728609,0.46988]}},{"type":"Feature","properties":{"name":"The Star in Great Baddow","id":"11462"},"geometry":{"type":"Point","coordinates":[51.723844,0.485374]}},{"type":"Feature","properties":{"name":"The Swan in Hatfield Peverel","id":"11464"},"geometry":{"type":"Point","coordinates":[51.775371,0.592528]}},{"type":"Feature","properties":{"name":"Sweethearts in South Woodham Ferrers","id":"11465"},"geometry":{"type":"Point","coordinates":[51.644051,0.617913]}},{"type":"Feature","properties":{"name":"The Three Compasses in West Hanningfield","id":"11470"},"geometry":{"type":"Point","coordinates":[51.670361,0.49805]}},{"type":"Feature","properties":{"name":"The Three Horseshoes in Althorne","id":"11471"},"geometry":{"type":"Point","coordinates":[51.655221,0.764219]}},{"type":"Feature","properties":{"name":"The Town Crier in South Woodham Ferrers","id":"11474"},"geometry":{"type":"Point","coordinates":[51.644129,0.618076]}},{"type":"Feature","properties":{"name":"The Tulip in Springfield","id":"11475"},"geometry":{"type":"Point","coordinates":[51.744163,0.48478]}},{"type":"Feature","properties":{"name":"The Two Brewers in Chelmsford","id":"11476"},"geometry":{"type":"Point","coordinates":[51.73346,0.478891]}},{"type":"Feature","properties":{"name":"The Two Saxons in Chelmsford","id":"11477"},"geometry":{"type":"Point","coordinates":[51.746077,0.48913]}},{"type":"Feature","properties":{"name":"The Walnut Tree in Great Waltham","id":"11480"},"geometry":{"type":"Point","coordinates":[51.784812,0.454867]}},{"type":"Feature","properties":{"name":"The Wheatsheaf in Writtle","id":"11482"},"geometry":{"type":"Point","coordinates":[51.731281,0.426192]}},{"type":"Feature","properties":{"name":"The White Bear in Chelmsford","id":"11484"},"geometry":{"type":"Point","coordinates":[51.700517,0.47194]}},{"type":"Feature","properties":{"name":"The White Horse in Chelmsford","id":"11489"},"geometry":{"type":"Point","coordinates":[51.737845,0.468657]}},{"type":"Feature","properties":{"name":"The Red Lion in Studham","id":"1148"},"geometry":{"type":"Point","coordinates":[51.831633,-0.517333]}},{"type":"Feature","properties":{"name":"The White Horse in Great Baddow","id":"11490"},"geometry":{"type":"Point","coordinates":[51.715343,0.501315]}},{"type":"Feature","properties":{"name":"The Woolpack in Chelmsford","id":"11494"},"geometry":{"type":"Point","coordinates":[51.729419,0.475166]}},{"type":"Feature","properties":{"name":"The Forester in Chigwell","id":"11499"},"geometry":{"type":"Point","coordinates":[51.612437,0.112011]}},{"type":"Feature","properties":{"name":"Saracens Head in Dunstable","id":"1149"},"geometry":{"type":"Point","coordinates":[51.885308,-0.519742]}},{"type":"Feature","properties":{"name":"The Maypole in Chigwell Row","id":"11500"},"geometry":{"type":"Point","coordinates":[51.619711,0.113591]}},{"type":"Feature","properties":{"name":"The Two Brewers in Chigwell","id":"11502"},"geometry":{"type":"Point","coordinates":[51.621634,0.120615]}},{"type":"Feature","properties":{"name":"The Blacksmith Arms in Little Clacton","id":"11507"},"geometry":{"type":"Point","coordinates":[51.826375,1.142731]}},{"type":"Feature","properties":{"name":"Brace Of Pistols in Clacton-On-Sea","id":"11508"},"geometry":{"type":"Point","coordinates":[51.803574,1.128913]}},{"type":"Feature","properties":{"name":"The Crown in Thorpe-Le-Soken","id":"11516"},"geometry":{"type":"Point","coordinates":[51.857715,1.162254]}},{"type":"Feature","properties":{"name":"The Sportsman in Dunstable","id":"1151"},"geometry":{"type":"Point","coordinates":[51.892978,-0.497139]}},{"type":"Feature","properties":{"name":"The Kings Arms in St. Osyth","id":"11524"},"geometry":{"type":"Point","coordinates":[51.800651,1.078168]}},{"type":"Feature","properties":{"name":"The Star and Garter in Dunstable","id":"1152"},"geometry":{"type":"Point","coordinates":[51.883065,-0.515922]}},{"type":"Feature","properties":{"name":"Never Say Die in Jaywick","id":"11530"},"geometry":{"type":"Point","coordinates":[51.775098,1.119726]}},{"type":"Feature","properties":{"name":"The Plough in Clacton-On-Sea","id":"11535"},"geometry":{"type":"Point","coordinates":[51.805077,1.15477]}},{"type":"Feature","properties":{"name":"The Queens Head in Clacton-On-Sea","id":"11536"},"geometry":{"type":"Point","coordinates":[51.804793,1.154594]}},{"type":"Feature","properties":{"name":"The Red Lion in St. Osyth","id":"11537"},"geometry":{"type":"Point","coordinates":[51.799459,1.078711]}},{"type":"Feature","properties":{"name":"The Roaring Donkey in Clacton-On-Sea","id":"11538"},"geometry":{"type":"Point","coordinates":[51.802378,1.181116]}},{"type":"Feature","properties":{"name":"The Robert Burre in Clacton-On-Sea","id":"11539"},"geometry":{"type":"Point","coordinates":[51.812569,1.172489]}},{"type":"Feature","properties":{"name":"The Robin Hood in Clacton-On-Sea","id":"11540"},"geometry":{"type":"Point","coordinates":[51.80807,1.149551]}},{"type":"Feature","properties":{"name":"The Rose and Crown in Thorpe-Le-Soken","id":"11541"},"geometry":{"type":"Point","coordinates":[51.859228,1.159954]}},{"type":"Feature","properties":{"name":"Sailor Boy Freehouse in St. Osyth","id":"11542"},"geometry":{"type":"Point","coordinates":[51.772608,1.08703]}},{"type":"Feature","properties":{"name":"Seagulls in St. Osyth","id":"11544"},"geometry":{"type":"Point","coordinates":[51.776913,1.086498]}},{"type":"Feature","properties":{"name":"The Seldrake in Jaywick","id":"11545"},"geometry":{"type":"Point","coordinates":[51.773899,1.113199]}},{"type":"Feature","properties":{"name":"The Highwayman in Dunstable","id":"1154"},"geometry":{"type":"Point","coordinates":[51.875406,-0.504668]}},{"type":"Feature","properties":{"name":"Three Jays in Jaywick","id":"11552"},"geometry":{"type":"Point","coordinates":[51.782487,1.119693]}},{"type":"Feature","properties":{"name":"Tom Peppers in Clacton-On-Sea","id":"11553"},"geometry":{"type":"Point","coordinates":[51.787435,1.153693]}},{"type":"Feature","properties":{"name":"The White Hart in Weeley Heath","id":"11557"},"geometry":{"type":"Point","coordinates":[51.844381,1.123169]}},{"type":"Feature","properties":{"name":"The Alma in Copford","id":"11562"},"geometry":{"type":"Point","coordinates":[51.869395,0.798914]}},{"type":"Feature","properties":{"name":"The Anchor in Rowhedge","id":"11563"},"geometry":{"type":"Point","coordinates":[51.855992,0.948741]}},{"type":"Feature","properties":{"name":"The Anchor in Stratford St. Mary","id":"11565"},"geometry":{"type":"Point","coordinates":[51.970332,0.979385]}},{"type":"Feature","properties":{"name":"The Ancient Briton in Colchester","id":"11567"},"geometry":{"type":"Point","coordinates":[51.870768,0.875436]}},{"type":"Feature","properties":{"name":"The Heckford Angel in Colchester","id":"11569"},"geometry":{"type":"Point","coordinates":[51.860212,0.824475]}},{"type":"Feature","properties":{"name":"The Beehive in Colchester","id":"11572"},"geometry":{"type":"Point","coordinates":[51.896984,0.948111]}},{"type":"Feature","properties":{"name":"The Beehive in Little Horkesley","id":"11573"},"geometry":{"type":"Point","coordinates":[51.952904,0.851929]}},{"type":"Feature","properties":{"name":"The Bird In Hand in Earls Colne","id":"11576"},"geometry":{"type":"Point","coordinates":[51.908579,0.696556]}},{"type":"Feature","properties":{"name":"The Black Horse in Stratford St. Mary","id":"11578"},"geometry":{"type":"Point","coordinates":[51.966126,0.972146]}},{"type":"Feature","properties":{"name":"The Travellers Rest in Edlesborough","id":"1157"},"geometry":{"type":"Point","coordinates":[51.850784,-0.580108]}},{"type":"Feature","properties":{"name":"Brewers Arms in Polstead","id":"11583"},"geometry":{"type":"Point","coordinates":[52.02865,0.895692]}},{"type":"Feature","properties":{"name":"The Brewers Arms in Colchester","id":"11584"},"geometry":{"type":"Point","coordinates":[51.887593,0.900056]}},{"type":"Feature","properties":{"name":"The Brewers Arms in Brightlingsea","id":"11585"},"geometry":{"type":"Point","coordinates":[51.810551,1.025612]}},{"type":"Feature","properties":{"name":"The Bricklayers Arms in Little Bentley","id":"11587"},"geometry":{"type":"Point","coordinates":[51.890134,1.072684]}},{"type":"Feature","properties":{"name":"The Bricklayers in Colchester","id":"11588"},"geometry":{"type":"Point","coordinates":[51.902038,0.894197]}},{"type":"Feature","properties":{"name":"The Britannia in Colchester","id":"11589"},"geometry":{"type":"Point","coordinates":[51.87918,0.902466]}},{"type":"Feature","properties":{"name":"The Victoria in Dunstable","id":"1158"},"geometry":{"type":"Point","coordinates":[51.884908,-0.524419]}},{"type":"Feature","properties":{"name":"The British Grenadier in Colchester","id":"11590"},"geometry":{"type":"Point","coordinates":[51.881749,0.91077]}},{"type":"Feature","properties":{"name":"The Bull in Colchester","id":"11591"},"geometry":{"type":"Point","coordinates":[51.887547,0.894995]}},{"type":"Feature","properties":{"name":"The Carriers Arms in East Bergholt","id":"11593"},"geometry":{"type":"Point","coordinates":[51.977992,1.019012]}},{"type":"Feature","properties":{"name":"The Castle in Earls Colne","id":"11595"},"geometry":{"type":"Point","coordinates":[51.927132,0.702425]}},{"type":"Feature","properties":{"name":"The Chequers in Great Tey","id":"11597"},"geometry":{"type":"Point","coordinates":[51.89863,0.746797]}},{"type":"Feature","properties":{"name":"Cherry Tree in Colchester","id":"11598"},"geometry":{"type":"Point","coordinates":[51.858226,0.909975]}},{"type":"Feature","properties":{"name":"The Cherry Tree in Brightlingsea","id":"11599"},"geometry":{"type":"Point","coordinates":[51.815645,1.0222]}},{"type":"Feature","properties":{"name":"The Purple Dog in Colchester","id":"11602"},"geometry":{"type":"Point","coordinates":[51.888014,0.899376]}},{"type":"Feature","properties":{"name":"The Coopers Arms in Aldham","id":"11606"},"geometry":{"type":"Point","coordinates":[51.90831,0.790603]}},{"type":"Feature","properties":{"name":"The Lexden Crown in Colchester","id":"11612"},"geometry":{"type":"Point","coordinates":[51.889994,0.858218]}},{"type":"Feature","properties":{"name":"The Dog and Pheasant in Colchester","id":"11614"},"geometry":{"type":"Point","coordinates":[51.912865,0.891072]}},{"type":"Feature","properties":{"name":"The Dog and Pheasant in East Mersea","id":"11615"},"geometry":{"type":"Point","coordinates":[51.792078,0.979855]}},{"type":"Feature","properties":{"name":"The Five Bells in Colne Engaine","id":"11619"},"geometry":{"type":"Point","coordinates":[51.940379,0.691886]}},{"type":"Feature","properties":{"name":"The Creek in Great Bentley","id":"11621"},"geometry":{"type":"Point","coordinates":[51.820213,1.070272]}},{"type":"Feature","properties":{"name":"The Foresters Arms in Colchester","id":"11624"},"geometry":{"type":"Point","coordinates":[51.891637,0.906378]}},{"type":"Feature","properties":{"name":"The Fox and Fiddler in Colchester","id":"11627"},"geometry":{"type":"Point","coordinates":[51.88763,0.896329]}},{"type":"Feature","properties":{"name":"The Layer Fox in Layer-De-La-Haye","id":"11629"},"geometry":{"type":"Point","coordinates":[51.843904,0.855324]}},{"type":"Feature","properties":{"name":"The George in Colchester","id":"11635"},"geometry":{"type":"Point","coordinates":[51.890039,0.901187]}},{"type":"Feature","properties":{"name":"The Goat and Boot in Colchester","id":"11637"},"geometry":{"type":"Point","coordinates":[51.890053,0.91136]}},{"type":"Feature","properties":{"name":"The Greyhound in Wivenhoe","id":"11639"},"geometry":{"type":"Point","coordinates":[51.856271,0.959101]}},{"type":"Feature","properties":{"name":"Bird In Hand in Lower Stondon","id":"1163"},"geometry":{"type":"Point","coordinates":[52.007353,-0.304913]}},{"type":"Feature","properties":{"name":"Hare and Hounds in Leavenheath","id":"11642"},"geometry":{"type":"Point","coordinates":[52.000378,0.849075]}},{"type":"Feature","properties":{"name":"The Hare and Hounds in East Bergholt","id":"11643"},"geometry":{"type":"Point","coordinates":[51.978313,1.022267]}},{"type":"Feature","properties":{"name":"The Hole In The Wall in Colchester","id":"11644"},"geometry":{"type":"Point","coordinates":[51.88816,0.893883]}},{"type":"Feature","properties":{"name":"The Kings Arms in Colchester","id":"11647"},"geometry":{"type":"Point","coordinates":[51.887823,0.892542]}},{"type":"Feature","properties":{"name":"The Kings Arms in Frating","id":"11649"},"geometry":{"type":"Point","coordinates":[51.868942,1.035003]}},{"type":"Feature","properties":{"name":"The Engineers Arms in Henlow","id":"1164"},"geometry":{"type":"Point","coordinates":[52.032011,-0.285598]}},{"type":"Feature","properties":{"name":"The Kings Head in Brightlingsea","id":"11651"},"geometry":{"type":"Point","coordinates":[51.811338,1.024425]}},{"type":"Feature","properties":{"name":"The Kings Head in East Bergholt","id":"11652"},"geometry":{"type":"Point","coordinates":[51.96894,1.022335]}},{"type":"Feature","properties":{"name":"The Leather Bottle in Colchester","id":"11657"},"geometry":{"type":"Point","coordinates":[51.872808,0.861096]}},{"type":"Feature","properties":{"name":"The Lion in Earls Colne","id":"11658"},"geometry":{"type":"Point","coordinates":[51.927846,0.698787]}},{"type":"Feature","properties":{"name":"The Lion in Ardleigh","id":"11659"},"geometry":{"type":"Point","coordinates":[51.927025,0.98514]}},{"type":"Feature","properties":{"name":"Little Crown in Colchester","id":"11660"},"geometry":{"type":"Point","coordinates":[51.887867,0.902791]}},{"type":"Feature","properties":{"name":"Live and Let Live in Stanway","id":"11661"},"geometry":{"type":"Point","coordinates":[51.887259,0.840411]}},{"type":"Feature","properties":{"name":"The Marquis Of Granby in Colchester","id":"11666"},"geometry":{"type":"Point","coordinates":[51.89204,0.896607]}},{"type":"Feature","properties":{"name":"The Norfolk in Colchester","id":"11670"},"geometry":{"type":"Point","coordinates":[51.898074,0.894814]}},{"type":"Feature","properties":{"name":"The Bonnie Blue Oak in Tiptree","id":"11671"},"geometry":{"type":"Point","coordinates":[51.821681,0.745275]}},{"type":"Feature","properties":{"name":"The Odd One Out in Colchester","id":"11672"},"geometry":{"type":"Point","coordinates":[51.884045,0.903504]}},{"type":"Feature","properties":{"name":"The Old Anchor in Feering","id":"11673"},"geometry":{"type":"Point","coordinates":[51.843772,0.715484]}},{"type":"Feature","properties":{"name":"The Old Queens Head in Aldham","id":"11676"},"geometry":{"type":"Point","coordinates":[51.907584,0.790522]}},{"type":"Feature","properties":{"name":"The Peldon Plough in Peldon","id":"11679"},"geometry":{"type":"Point","coordinates":[51.810631,0.885429]}},{"type":"Feature","properties":{"name":"The Star in Leighton Buzzard","id":"1167"},"geometry":{"type":"Point","coordinates":[51.937009,-0.656502]}},{"type":"Feature","properties":{"name":"The Prettygate in Lexden","id":"11684"},"geometry":{"type":"Point","coordinates":[51.880599,0.865091]}},{"type":"Feature","properties":{"name":"Queens Head in West Bergholt","id":"11687"},"geometry":{"type":"Point","coordinates":[51.909617,0.847497]}},{"type":"Feature","properties":{"name":"The Queens Head in Great Wenham","id":"11688"},"geometry":{"type":"Point","coordinates":[52.008544,1.019394]}},{"type":"Feature","properties":{"name":"The Queens in Colchester","id":"11689"},"geometry":{"type":"Point","coordinates":[51.87608,0.900771]}},{"type":"Feature","properties":{"name":"The Red Lion in East Bergholt","id":"11691"},"geometry":{"type":"Point","coordinates":[51.971555,1.01156]}},{"type":"Feature","properties":{"name":"The Red Lion in Marks Tey","id":"11692"},"geometry":{"type":"Point","coordinates":[51.877187,0.76034]}},{"type":"Feature","properties":{"name":"The Red Lion in Thorrington","id":"11693"},"geometry":{"type":"Point","coordinates":[51.838747,1.04309]}},{"type":"Feature","properties":{"name":"The Rose and Crown in Great Horkesley","id":"11701"},"geometry":{"type":"Point","coordinates":[51.951802,0.872493]}},{"type":"Feature","properties":{"name":"The Rose and Crown in Wivenhoe","id":"11702"},"geometry":{"type":"Point","coordinates":[51.854425,0.95882]}},{"type":"Feature","properties":{"name":"The Rosebud in Brightlingsea","id":"11704"},"geometry":{"type":"Point","coordinates":[51.809831,1.032624]}},{"type":"Feature","properties":{"name":"Royal Mortar in Colchester","id":"11705"},"geometry":{"type":"Point","coordinates":[51.881124,0.912878]}},{"type":"Feature","properties":{"name":"The Royal Oak in East Bergholt","id":"11706"},"geometry":{"type":"Point","coordinates":[51.975252,1.056168]}},{"type":"Feature","properties":{"name":"The Fat Cat in Colchester","id":"11707"},"geometry":{"type":"Point","coordinates":[51.885552,0.894198]}},{"type":"Feature","properties":{"name":"The Top Bell in Leighton Buzzard","id":"1170"},"geometry":{"type":"Point","coordinates":[51.916055,-0.660939]}},{"type":"Feature","properties":{"name":"The Shepherd in Langham","id":"11710"},"geometry":{"type":"Point","coordinates":[51.946615,0.934674]}},{"type":"Feature","properties":{"name":"The Silver Oyster in Colchester","id":"11712"},"geometry":{"type":"Point","coordinates":[51.863592,0.906094]}},{"type":"Feature","properties":{"name":"The Snooty Fox in Great Bromley","id":"11715"},"geometry":{"type":"Point","coordinates":[51.874773,1.03698]}},{"type":"Feature","properties":{"name":"The Spinnaker in Colchester","id":"11716"},"geometry":{"type":"Point","coordinates":[51.882518,0.926644]}},{"type":"Feature","properties":{"name":"The Stockwell Arms in Colchester","id":"11718"},"geometry":{"type":"Point","coordinates":[51.891576,0.899119]}},{"type":"Feature","properties":{"name":"The Golden Bell in Leighton Buzzard","id":"1171"},"geometry":{"type":"Point","coordinates":[51.91538,-0.664415]}},{"type":"Feature","properties":{"name":"The Swan in Stratford St. Mary","id":"11723"},"geometry":{"type":"Point","coordinates":[51.968167,0.972557]}},{"type":"Feature","properties":{"name":"The Swan in Stanway","id":"11725"},"geometry":{"type":"Point","coordinates":[51.882275,0.810178]}},{"type":"Feature","properties":{"name":"The White Hart in Coggeshall","id":"11734"},"geometry":{"type":"Point","coordinates":[51.870772,0.685709]}},{"type":"Feature","properties":{"name":"The Three Horseshoes in Fordham","id":"11735"},"geometry":{"type":"Point","coordinates":[51.918877,0.801978]}},{"type":"Feature","properties":{"name":"The Red Herring in West Bergholt","id":"11737"},"geometry":{"type":"Point","coordinates":[51.914976,0.853101]}},{"type":"Feature","properties":{"name":"The Red Lion in Leighton Buzzard","id":"1173"},"geometry":{"type":"Point","coordinates":[51.916823,-0.661132]}},{"type":"Feature","properties":{"name":"The White Hart in Stanway","id":"11747"},"geometry":{"type":"Point","coordinates":[51.883403,0.814143]}},{"type":"Feature","properties":{"name":"The White Hart in West Bergholt","id":"11748"},"geometry":{"type":"Point","coordinates":[51.919569,0.848389]}},{"type":"Feature","properties":{"name":"The Wooden Fender in Ardleigh","id":"11751"},"geometry":{"type":"Point","coordinates":[51.922692,0.972969]}},{"type":"Feature","properties":{"name":"The Yachtsmans Arms in Brightlingsea","id":"11753"},"geometry":{"type":"Point","coordinates":[51.806273,1.023766]}},{"type":"Feature","properties":{"name":"The Admiral Vernon in Dagenham","id":"11754"},"geometry":{"type":"Point","coordinates":[51.535565,0.151362]}},{"type":"Feature","properties":{"name":"The Cherry Tree in Dagenham","id":"11756"},"geometry":{"type":"Point","coordinates":[51.552673,0.134979]}},{"type":"Feature","properties":{"name":"The Eastbrook in Dagenham","id":"11757"},"geometry":{"type":"Point","coordinates":[51.551538,0.161125]}},{"type":"Feature","properties":{"name":"The Stag in Leighton Buzzard","id":"1175"},"geometry":{"type":"Point","coordinates":[51.923149,-0.660166]}},{"type":"Feature","properties":{"name":"The Beacon Tree in Dagenham","id":"11760"},"geometry":{"type":"Point","coordinates":[51.561346,0.141642]}},{"type":"Feature","properties":{"name":"The Roundhouse in Dagenham","id":"11765"},"geometry":{"type":"Point","coordinates":[51.542678,0.113553]}},{"type":"Feature","properties":{"name":"The Three Travellers in Dagenham","id":"11767"},"geometry":{"type":"Point","coordinates":[51.560841,0.14983]}},{"type":"Feature","properties":{"name":"The Angel and Harp in Churchend","id":"11768"},"geometry":{"type":"Point","coordinates":[51.879928,0.36506]}},{"type":"Feature","properties":{"name":"The Litten Tree in Leighton Buzzard","id":"1176"},"geometry":{"type":"Point","coordinates":[51.916042,-0.660272]}},{"type":"Feature","properties":{"name":"The Black Lion in High Roding","id":"11770"},"geometry":{"type":"Point","coordinates":[51.828856,0.32321]}},{"type":"Feature","properties":{"name":"The Boars Head in Great Dunmow","id":"11771"},"geometry":{"type":"Point","coordinates":[51.871509,0.363771]}},{"type":"Feature","properties":{"name":"The Butchers Arms in North End","id":"11772"},"geometry":{"type":"Point","coordinates":[51.832879,0.412773]}},{"type":"Feature","properties":{"name":"The Chequers in Great Dunmow","id":"11773"},"geometry":{"type":"Point","coordinates":[51.872715,0.360424]}},